FID,lat,lon,gid,name,state_name,state_fips,cnty_fips,fips,area,pop2000,crops,manure,forest,primmill,secmill,urban,landfill,wwtf,swg,total
ReAtlas_biomass.3084,32.6519840655615,-88.13227307120997,3084,Sumter,Alabama,01,119,01119,913.29766,14798,0.000,504.283,60295.000,25055.000,493.682,1954.436,0.000,24.470,108548.294,196875.164
ReAtlas_biomass.3085,32.59146402874956,-87.27247272433348,3085,Perry,Alabama,01,105,01105,724.07508,11861,0.000,18.524,29079.000,0.000,0.000,1384.280,0.000,19.613,121067.654,151569.071
ReAtlas_biomass.3087,32.5786653774703,-85.34965678063475,3087,Lee,Alabama,01,081,01081,615.54648,115092,991.114,51.045,24915.000,554056.000,281.542,12215.154,13853.161,190.316,8398.858,614952.190
ReAtlas_biomass.3088,32.388597982333984,-87.1412314352809,3088,Dallas,Alabama,01,047,01047,993.3882,46365,7029.761,57.425,62340.000,138952.000,771.142,5336.929,0.000,76.669,152349.725,366913.651
ReAtlas_biomass.3109,31.26114058007004,-86.4455655081108,3109,Covington,Alabama,01,039,01039,1043.86091,37631,8726.061,3064.205,32474.000,4164.000,501.847,4451.291,0.000,62.227,105538.205,158981.836
ReAtlas_biomass.3110,31.15652355416804,-85.35653000791643,3110,Houston,Alabama,01,069,01069,581.60521,88787,21242.282,504.456,19263.000,0.000,1518.689,9638.574,10758.273,146.818,66766.291,129838.382
ReAtlas_biomass.3111,31.129073937601873,-87.15272367232728,3111,Escambia,Alabama,01,053,01053,952.95227,38440,6734.818,33.961,42398.000,265050.000,505.930,4624.104,1754.217,63.564,29208.211,350372.805
ReAtlas_biomass.70,38.31906873016233,-80.83546581063874,70,Nicholas,,54,067,54067,654.40495,26562,0.000,5.064,109872.000,88885.000,510.012,2774.670,0.000,43.923,607.370,202698.039
ReAtlas_biomass.2826,39.098161294463615,-75.53657206500773,2826,Kent,Delaware,10,001,10001,598.90363,126697,83568.951,67.694,8790.000,5268.000,1486.030,13656.945,7137.361,209.506,8532.216,128716.702
ReAtlas_biomass.2827,38.70781068070434,-75.38669182056142,2827,Sussex,Delaware,10,005,10005,944.28721,156638,126587.038,431.747,38828.000,8415.000,1804.313,16975.130,7355.761,259.017,8793.490,209449.496
ReAtlas_biomass.126,43.94544862865272,-89.81409965084941,126,Adams,Wisconsin,55,001,55001,688.49255,18643,49788.833,18.225,42614.000,0.000,0.000,1943.294,116.000,30.828,10373.378,104884.558
ReAtlas_biomass.482,32.18411240869617,-94.3093914205217,482,Panola,Texas,48,365,48365,821.34071,22756,0.000,292.940,78443.000,0.000,244.800,2627.868,0.000,37.629,4561.402,86207.639
ReAtlas_biomass.182,46.59375243656903,-122.36592710223664,182,Lewis,Washington,53,041,53041,2436.66276,68600,300.650,1576.407,151928.000,566015.000,1783.901,9701.691,6154.124,113.437,0.000,737573.211
ReAtlas_biomass.183,46.46766118229675,-118.83123578104608,183,Franklin,Washington,53,021,53021,1265.36837,49347,64891.776,888.724,0.000,0.000,257.047,5567.686,0.000,81.600,0.000,71686.833
ReAtlas_biomass.184,46.282633294579874,-119.4127767362024,184,Benton,Washington,53,005,53005,1760.10762,142475,53127.814,8.174,0.000,0.000,497.765,16085.302,0.000,235.597,0.000,69954.653
ReAtlas_biomass.185,46.35121365991483,-117.54787965224816,185,Garfield,Washington,53,023,53023,718.27053,2397,55381.821,8.028,0.000,0.000,0.000,356.817,0.000,3.964,0.000,55750.631
ReAtlas_biomass.186,46.312275917466216,-117.92461589824259,186,Columbia,Washington,53,013,53013,873.55574,4064,71539.057,0.000,0.000,0.000,8.165,451.054,0.000,6.720,0.000,72004.996
ReAtlas_biomass.187,46.3045363542079,-118.51930793073672,187,,Washington,53,071,53071,1299.23612,55180,211602.743,21.366,0.000,0.000,24.494,6487.417,4939.378,91.246,0.000,223166.644
ReAtlas_biomass.188,46.5176442294439,-123.7294394430638,188,Pacific,Washington,53,049,53049,936.2118,20984,0.000,265.652,11731.000,194445.000,4.082,2601.304,0.000,34.699,0.000,209081.737
ReAtlas_biomass.2947,36.13959584284738,-119.89660461833552,2947,Kings,California,06,031,06031,1391.61703,129461,132084.943,20208.565,0.000,0.000,20.412,14819.864,6486.445,214.077,0.000,173834.306
ReAtlas_biomass.2856,39.871640719281366,-104.38137497359637,2856,Adams,Colorado,08,001,08001,1197.56935,363857,40602.946,167.490,0.000,0.000,6327.720,37560.856,24791.750,601.674,0.000,110052.437
ReAtlas_biomass.2706,32.16348456722579,-81.87210448210939,2706,Evans,Georgia,13,109,13109,186.8944,10495,3078.865,749.717,14033.000,111327.000,4.082,1219.010,0.000,17.355,21125.059,151554.088
ReAtlas_biomass.573,29.835179338328928,-95.43586905746452,573,Harris,Texas,48,201,48201,1773.49474,3400578,6155.564,105.417,21231.000,53469.000,26339.825,365749.389,89429.000,5623.196,0.000,568102.391
ReAtlas_biomass.2666,32.99765869541552,-82.79298545536653,2666,Washington,Georgia,13,303,13303,684.69048,21176,5549.867,122.612,41379.000,0.000,248.882,2548.795,0.000,35.017,15398.813,65282.986
ReAtlas_biomass.2667,33.038174472550864,-84.67814240085741,2667,Meriwether,Georgia,13,199,13199,505.07299,22534,333.914,16.600,36881.000,341993.000,4.082,2604.003,0.000,37.262,9803.203,391673.064
ReAtlas_biomass.2829,41.75943293780053,-73.20403688037132,2829,Litchfield,Connecticut,09,005,09005,944.66916,182193,0.000,0.000,17130.000,10225.000,1624.831,20085.171,15127.161,301.274,421.848,64915.285
ReAtlas_biomass.2830,41.79222242701541,-72.71990201303112,2830,Hartford,Connecticut,09,003,09003,750.59929,857183,0.000,0.000,3124.000,3260.000,7156.015,93824.219,16814.320,1417.438,45.360,125641.352
ReAtlas_biomass.2833,41.40839122416864,-72.93288472076327,2833,,Connecticut,09,009,09009,619.38416,824008,0.000,0.000,8209.000,6246.000,4242.010,90744.707,13328.320,1362.580,635.040,124767.657
ReAtlas_biomass.2834,41.49663339342994,-72.12842569398882,2834,,Connecticut,09,011,09011,692.23606,259088,0.000,0.000,9522.000,5931.000,787.471,28848.658,6573.161,428.428,77.112,52167.830
ReAtlas_biomass.2835,41.451104184346214,-72.52991319769001,2835,Middlesex,Connecticut,09,007,09007,384.62193,155071,0.000,0.000,14416.000,24708.000,2028.701,17394.577,0.000,256.425,54.432,58858.135
ReAtlas_biomass.2836,41.32724166730979,-73.39813849025745,2836,Fairfield,Connecticut,09,001,09001,644.73417,882567,0.000,0.000,559.000,1845.000,6205.392,97323.525,13305.570,1459.413,0.000,120697.900
ReAtlas_biomass.2351,38.00122668482877,-87.89366760592017,2351,Posey,Indiana,18,129,18129,419.44739,27061,143690.305,283.371,13184.000,0.000,489.600,3188.550,2234.988,44.748,3450.989,166566.550
ReAtlas_biomass.2352,37.994082096970125,-87.01770616071241,2352,Spencer,Indiana,18,147,18147,401.2016,20391,62203.537,1193.456,10954.000,13544.000,248.882,2515.791,9385.000,33.719,17973.446,118051.831
ReAtlas_biomass.2353,37.99719571627817,-87.57527127486523,2353,Vanderburgh,Indiana,18,163,18163,235.57311,171922,55038.858,64.732,15436.000,5676.000,1792.066,19680.527,12033.161,284.290,2400.451,112406.084
ReAtlas_biomass.2354,42.35152814809324,-90.28889673562333,2354,,Illinois,17,085,17085,618.70322,22289,128533.840,682.635,16856.000,0.000,16.330,2642.545,0.000,36.857,149045.702,297813.909
ReAtlas_biomass.2267,41.46512620784195,-87.07652954960088,2267,Porter,Indiana,18,127,18127,419.98942,146798,82414.687,293.303,1750.000,11531.000,530.424,17167.612,15113.340,242.745,12501.216,141544.328
ReAtlas_biomass.2268,41.43622517796424,-87.37340459069776,2268,Lake,Indiana,18,089,18089,503.87545,484564,84594.821,502.221,1374.000,0.000,3029.213,55469.775,12614.000,801.275,10004.602,168389.906
ReAtlas_biomass.1256,42.49329011009123,-98.78165062769426,1256,Holt,Nebraska,31,089,31089,2417.65982,11551,238316.467,6297.146,2078.000,0.000,0.000,1268.596,0.000,19.101,0.000,247979.310
ReAtlas_biomass.1257,42.66048766760549,-97.89902763669511,1257,Knox,Nebraska,31,107,31107,1139.65646,9374,92983.327,3203.115,2251.000,0.000,0.000,1029.506,0.000,15.501,97694.554,197177.003
ReAtlas_biomass.1258,42.60992881707489,-97.25135698233862,1258,Cedar,Nebraska,31,027,31027,745.8133,9615,177824.656,4561.711,792.000,0.000,0.000,1055.974,0.000,15.899,92485.411,276735.651
ReAtlas_biomass.1259,42.46601088414428,-99.93210613316512,1259,Brown,Nebraska,31,017,31017,1225.06954,3525,49795.060,458.232,47.000,0.000,0.000,387.135,0.000,5.829,0.000,50693.256
ReAtlas_biomass.2848,40.00308090403724,-103.24646598533013,2848,Washington,Colorado,08,121,08121,2524.11914,4926,84353.814,909.647,0.000,0.000,4.082,502.365,0.000,8.146,0.000,85778.053
ReAtlas_biomass.2764,30.47988352315501,-84.34698503145489,2764,Leon,Florida,12,073,12073,701.14331,239452,0.000,3.284,23463.000,0.000,1983.794,25200.333,5990.761,395.958,7560.605,64597.735
ReAtlas_biomass.2765,30.377507135247455,-83.84088944944855,2765,Jefferson,Florida,12,065,12065,612.41522,12902,3221.409,13.137,95121.000,0.000,244.800,1519.823,0.000,21.335,53969.328,154110.832
ReAtlas_biomass.2766,30.45600517296665,-83.49699933630876,2766,Madison,Florida,12,079,12079,715.7595,18733,2987.774,126.613,108592.000,19180.000,244.800,2124.645,2828.730,30.977,36632.736,172748.275
ReAtlas_biomass.2767,30.476260717193973,-82.9780444217705,2767,Hamilton,Florida,12,047,12047,519.30908,13327,3518.655,45.008,51241.000,0.000,0.000,1382.346,0.000,22.038,4125.946,60334.993
ReAtlas_biomass.2768,30.404185277948713,-85.16258940091251,2768,Calhoun,Florida,12,013,12013,574.52988,13017,4930.025,4.379,59462.000,33586.000,4.082,1531.751,0.000,21.525,5375.614,104915.377
ReAtlas_biomass.2769,30.289251740450922,-84.84948538318125,2769,Liberty,Florida,12,077,12077,843.0652,7021,0.000,2.190,27848.000,91725.000,248.882,909.815,0.000,11.610,0.000,120745.496
ReAtlas_biomass.2770,30.212017591004035,-82.62701390827189,2770,Columbia,Florida,12,023,12023,800.82112,56513,1068.443,50.397,56970.000,78143.000,750.730,6043.384,0.000,93.450,2626.344,145745.748
ReAtlas_biomass.411,33.640020463083864,-95.02276663001845,411,,Texas,48,387,48387,1057.61477,14314,13093.020,97.939,50485.000,0.000,269.294,1811.119,0.000,23.670,89834.573,155614.615
ReAtlas_biomass.412,33.679024641751255,-96.66321347207577,412,Grayson,Texas,48,181,48181,978.57528,110595,39558.974,210.069,0.000,0.000,775.224,12615.388,6588.917,182.880,19300.226,79231.678
ReAtlas_biomass.414,33.66003458371392,-95.58380749104731,414,Lamar,Texas,48,277,48277,932.46803,48499,30978.612,230.209,0.000,0.000,257.047,5486.064,0.000,80.198,89230.378,126262.508
ReAtlas_biomass.415,33.61371922751101,-96.11504891322318,415,Fannin,Texas,48,147,48147,899.22139,31242,37748.529,54.411,0.000,0.000,257.047,3903.247,0.000,51.662,21375.900,63390.796
ReAtlas_biomass.2771,30.345413967971893,-81.71590091926512,2771,Duval,Florida,12,031,12031,847.87343,778879,0.000,499.034,42156.000,115516.000,9283.450,81152.521,40760.160,1287.954,0.000,290655.118
ReAtlas_biomass.1384,46.45862817572627,-99.47841108918584,1384,Logan,,38,047,38047,1011.07114,2308,26483.204,30.673,0.000,0.000,0.000,228.000,0.000,3.817,220424.198,247169.893
ReAtlas_biomass.1385,46.28386719428567,-96.91992284850329,1385,Richland,,38,077,38077,1445.73856,17998,471620.143,197.778,219.000,0.000,12.247,1959.525,0.000,29.761,145186.474,619224.928
ReAtlas_biomass.1402,36.402901872920545,-80.23997763030351,1402,Stokes,,37,169,37169,455.90968,44711,919.013,113.071,30078.000,47480.000,261.130,4598.555,1172.002,73.934,174.182,84869.887
ReAtlas_biomass.1403,36.356854399076106,-77.48410720645745,1403,Northampton,,37,131,37131,550.23552,22086,20967.434,4829.520,67932.000,124067.000,0.000,2408.276,889.791,36.521,12530.246,233660.788
ReAtlas_biomass.1404,36.392554021154176,-76.9540563114474,1404,Hertford,,37,091,37091,357.25634,22601,14003.065,2567.949,52300.000,51670.000,257.047,2369.419,747.963,37.373,2966.544,126919.360
ReAtlas_biomass.1405,36.37386044683447,-78.11143808636709,1405,Warren,,37,185,37185,443.79883,19972,3030.077,1690.473,134615.000,71560.000,501.847,2104.362,563.571,33.026,24886.310,238984.666
ReAtlas_biomass.425,33.47705029372148,-94.39592437498231,425,Bowie,Texas,48,037,48037,922.77203,89306,12512.289,423.161,53846.000,61505.000,1241.230,9963.665,0.000,147.676,11479.709,151118.729
ReAtlas_biomass.2781,29.956607243588437,-81.81677897508942,2781,Clay,Florida,12,019,12019,643.70342,140814,0.000,6.569,34111.000,130411.000,16.330,15059.864,1336.936,232.850,0.000,181174.548
ReAtlas_biomass.2787,29.93865155022764,-81.45243518912193,2787,,Florida,12,109,12109,660.63455,123135,332.234,6.569,46604.000,0.000,24.494,12953.766,1065.064,203.616,0.000,61189.742
ReAtlas_biomass.2788,29.58240146534365,-81.74881604917124,2788,Putnam,Florida,12,107,12107,827.13931,70423,0.000,13.137,39729.000,288947.000,285.624,7395.422,11840.970,116.451,0.000,348327.604
ReAtlas_biomass.2789,29.570879870784225,-83.15713172883667,2789,Dixie,Florida,12,029,12029,712.26743,13827,0.000,21.474,83309.000,156314.000,0.000,1524.989,0.000,22.864,127.008,241319.335
ReAtlas_biomass.2791,29.466259591973838,-81.31321018365031,2791,Flagler,Florida,12,035,12035,507.91761,49832,0.000,9.853,43576.000,9619.000,277.459,5350.395,0.000,82.402,0.000,58915.110
ReAtlas_biomass.2792,29.241477490235305,-82.08866383776814,2792,Marion,Florida,12,083,12083,1662.97017,258916,1758.050,479.168,44652.000,1329.000,901.778,27310.021,9179.401,428.143,0.000,86037.560
ReAtlas_biomass.2794,29.296869283227814,-82.7821411260654,2794,Levy,Florida,12,075,12075,1132.40356,34450,3744.373,1084.172,96670.000,6978.000,252.965,3754.894,0.000,56.967,206.388,112747.759
ReAtlas_biomass.2795,29.020030265782275,-81.20859241557375,2795,Volusia,Florida,12,127,12127,1208.74709,443343,0.000,29.041,28720.000,2894.000,1380.031,46258.193,16708.996,733.112,0.000,96723.373
ReAtlas_biomass.2797,28.74492740063522,-81.22384281953819,2797,Seminole,Florida,12,117,12117,344.70202,365196,0.000,10.948,1690.000,0.000,5094.655,38333.938,11669.161,603.888,0.000,57402.590
ReAtlas_biomass.2746,30.88443157395414,-82.69599286639158,2746,Clinch,Georgia,13,065,13065,824.45951,6878,0.000,0.000,67209.000,161037.000,244.800,1193.297,0.000,11.373,38.102,229733.572
ReAtlas_biomass.509,31.534610052051583,-94.64015354654833,509,Nacogdoches,Texas,48,347,48347,981.32873,59203,0.000,1559.714,86036.000,134878.000,297.871,6545.982,2608.108,97.898,696.730,232720.303
ReAtlas_biomass.2674,32.76786222833448,-81.62981172999483,2674,Screven,Georgia,13,251,13251,655.549,15374,16437.140,268.046,46110.000,0.000,248.882,1743.511,0.000,25.422,32158.426,96991.427
ReAtlas_biomass.2675,32.79673590843406,-83.17665831607107,2675,Wilkinson,Georgia,13,319,13319,452.10664,10220,171.879,3.074,81745.000,32284.000,1224.900,1280.227,0.000,16.900,1888.790,118614.770
ReAtlas_biomass.2671,33.02569846132646,-83.91552693634628,2671,Monroe,Georgia,13,207,13207,397.32587,21757,301.600,760.628,29826.000,208808.000,984.182,2883.594,5293.701,35.977,1730.938,250624.620
ReAtlas_biomass.2672,33.05834266662865,-83.23693443808801,2672,Baldwin,Georgia,13,009,13009,267.66061,44700,23.100,215.353,25595.000,32831.000,493.682,5622.345,0.000,73.916,435.456,65289.852
ReAtlas_biomass.580,29.60511731089288,-96.52610863705661,580,Colorado,Texas,48,089,48089,973.22014,20390,56080.958,276.420,0.000,0.000,4.082,2282.739,25614.000,33.717,365.148,84657.064
ReAtlas_biomass.584,29.525865853303998,-95.75765295128804,584,,Texas,48,157,48157,884.82548,354452,69145.250,110.814,0.000,0.000,1265.724,38648.863,14823.000,586.122,0.000,124579.774
ReAtlas_biomass.588,29.299126388899843,-96.24245861021382,588,Wharton,Texas,48,481,48481,1094.36121,41188,205734.616,100.115,0.000,0.000,277.459,4881.679,0.000,68.108,0.000,211061.977
ReAtlas_biomass.2588,40.88548251798053,-91.17645626914032,2588,,Iowa,19,057,19057,429.79954,42351,143638.371,997.010,2841.000,0.000,980.100,4640.601,7660.869,70.032,43404.077,204232.061
ReAtlas_biomass.2589,40.74145728812778,-95.63038895533202,2589,Fremont,Iowa,19,071,19071,516.75442,8010,151601.215,196.727,7913.000,0.000,0.000,826.185,0.000,13.245,50681.635,211232.008
ReAtlas_biomass.1661,39.464710575562805,-92.98966424478465,1661,Chariton,Missouri,29,041,29041,768.25445,8438,152950.203,993.530,21200.000,0.000,0.000,899.746,0.000,13.953,217755.216,393812.647
ReAtlas_biomass.592,29.212372952769904,-95.46718750923594,592,Brazoria,Texas,48,039,48039,1442.45298,241767,38659.942,275.170,0.000,0.000,518.177,27261.277,10065.741,399.786,0.000,77180.094
ReAtlas_biomass.1674,38.94621286247891,-92.33842476234747,1674,Boone,Missouri,29,019,29019,691.15348,135454,49029.562,490.989,6858.000,5634.000,762.977,14897.385,6177.000,223.987,45760.982,129834.882
ReAtlas_biomass.1675,39.03531413786767,-94.35732797305803,1675,Jackson,Missouri,29,095,29095,616.39967,654880,41474.130,63.807,3766.000,0.000,6115.579,69920.757,39068.000,1082.910,1769.040,163260.223
ReAtlas_biomass.1676,39.04943211792566,-90.9656817250717,1676,Lincoln,Missouri,29,113,29113,640.44145,38944,68472.866,1425.146,6991.000,16554.000,265.212,4334.166,0.000,64.398,54644.285,152751.074
ReAtlas_biomass.1677,38.912177649108344,-91.45434762662808,1677,Montgomery,Missouri,29,139,29139,540.34506,12136,79332.229,1342.325,5648.000,0.000,257.047,1475.624,938.130,20.068,54176.170,143189.593
ReAtlas_biomass.1678,38.811643226901026,-91.93098185022313,1678,Callaway,Missouri,29,027,29027,847.19263,40766,61155.153,1309.913,12767.000,21013.000,20.412,4710.006,883.776,67.411,75709.469,177636.140
ReAtlas_biomass.1696,38.25221412989072,-94.33287022447973,1696,Bates,Missouri,29,013,29013,851.32277,16653,89210.612,1356.858,4892.000,0.000,252.965,1866.493,419.254,27.537,97944.941,195970.660
ReAtlas_biomass.2199,38.90005511052764,-94.8324620293244,2199,Johnson,Kansas,20,091,20091,479.9857,451086,14734.877,44.246,3860.000,0.000,3535.142,54359.246,36123.041,745.916,9955.613,123358.081
ReAtlas_biomass.595,28.96960721931692,-96.62477944058679,595,Jackson,Texas,48,239,48239,852.45977,14391,88809.352,78.351,0.000,0.000,4.082,1819.397,0.000,23.797,0.000,90734.979
ReAtlas_biomass.596,29.343914976850883,-94.80301345543364,596,Galveston,Texas,48,167,48167,403.34793,250158,1214.850,17.411,0.000,0.000,289.706,28254.104,24908.000,413.661,0.000,55097.732
ReAtlas_biomass.1767,46.89051986009908,-96.50778518411249,1767,Clay,Minnesota,27,027,27027,1052.73723,51229,207949.187,307.549,8704.000,1184.000,522.259,5045.867,0.000,84.712,179156.124,402953.698
ReAtlas_biomass.1768,46.592810501197675,-93.43616496316486,1768,Aitkin,Minnesota,27,001,27001,1995.12988,15301,2328.200,28.932,74359.000,15249.000,984.182,1597.872,0.000,25.302,2331.050,96903.538
ReAtlas_biomass.1841,46.433783815681224,-89.7087205434853,1841,Gogebic,Michigan,26,053,26053,1144.05972,17370,0.000,0.000,38400.000,63345.000,252.965,2417.123,0.000,28.723,0.000,104443.811
ReAtlas_biomass.1842,46.500322749068154,-85.55260981897572,1842,Luce,Michigan,26,095,26095,927.16045,7024,0.000,0.000,33931.000,32539.000,244.800,921.368,0.000,11.615,0.000,67647.783
ReAtlas_biomass.1843,46.426268282122415,-86.49341262610241,1843,Alger,Michigan,26,003,26003,936.90514,9862,0.000,0.000,34915.000,41042.000,4.082,1347.742,0.000,16.308,0.000,77325.132
ReAtlas_biomass.2136,36.89830680105099,-87.4973399031737,2136,Christian,Kentucky,21,047,21047,724.00934,72265,123407.175,784.892,31749.000,8995.000,510.012,7922.367,7372.399,119.497,198433.217,379293.559
ReAtlas_biomass.1845,46.1714323269852,-88.5560150913457,1845,Iron,Michigan,26,071,26071,1211.01497,13138,0.000,0.000,71664.000,462.000,269.294,2007.469,0.000,21.725,285.768,74710.256
ReAtlas_biomass.1846,45.98530652372768,-87.87723822251064,1846,Dickinson,Michigan,26,043,26043,777.11228,27472,939.050,0.000,34780.000,216873.000,510.012,3339.345,0.000,45.428,812.398,257299.233
ReAtlas_biomass.1847,45.855558560275654,-86.91595355972996,1847,Delta,Michigan,26,041,26041,1173.43197,38520,3625.110,75.000,48003.000,171123.000,261.130,5099.671,0.000,63.697,395.993,228646.601
ReAtlas_biomass.599,28.79534039581803,-96.97496364178608,599,Victoria,Texas,48,469,48469,888.89203,84088,41039.696,87.057,0.000,0.000,12.247,9675.061,7083.433,139.048,0.000,58036.541
ReAtlas_biomass.1944,39.28480215943254,-76.62081715151635,1944,,Maryland,24,510,24510,81.46774,651154,0.000,0.000,0.000,0.000,3894.250,76143.970,23519.500,1076.748,0.000,104634.468
ReAtlas_biomass.1945,38.88937091265163,-75.86096241213914,1945,Caroline,Maryland,24,011,24011,324.47344,29772,51291.401,216.047,6327.000,16099.000,8.165,3658.857,5044.361,49.231,13681.483,96375.545
ReAtlas_biomass.1946,38.83561773084502,-76.87838211776773,1946,,Maryland,24,033,24033,497.03305,801515,4436.757,0.000,9425.000,0.000,3282.178,94068.887,69656.000,1325.385,2025.778,184219.984
ReAtlas_biomass.1947,39.195342280302825,-76.01793267661392,1947,Kent,Maryland,24,029,24029,284.55062,19197,53094.522,191.782,3881.000,0.000,244.800,2332.943,1494.500,31.744,15850.598,77121.889
ReAtlas_biomass.1948,39.144633490942624,-77.20863060071866,1948,Montgomery,Maryland,24,031,24031,507.11641,873341,18399.983,90.035,2515.000,6116.000,2387.808,102367.207,27113.000,1444.157,10687.723,171120.913
ReAtlas_biomass.1949,38.762250925765194,-76.12313793541199,1949,Talbot,Maryland,24,041,24041,273.37553,33812,43557.197,25.571,8298.000,0.000,24.494,4039.939,1063.129,55.912,15997.565,73061.806
ReAtlas_biomass.1950,39.0494236716863,-76.062882692866,1950,,Maryland,24,035,24035,375.17511,40563,71885.108,92.498,6409.000,0.000,758.894,4828.439,1784.000,67.075,26753.328,112578.342
ReAtlas_biomass.1951,38.97530076256734,-76.61814635382729,1951,,Maryland,24,003,24003,416.9083,489656,6435.403,0.000,14419.000,6388.000,1061.748,57462.960,0.000,809.695,748.440,87325.246
ReAtlas_biomass.1958,38.11160821468522,-75.79614546380449,1958,Somerset,Maryland,24,039,24039,313.45686,24747,17803.788,57.159,13800.000,11844.000,8.165,2981.169,1096.645,40.922,12835.066,60466.913
ReAtlas_biomass.1959,42.651691715534646,-70.92471355391302,1959,Essex,Massachusetts,25,009,25009,517.00672,723419,0.000,0.000,3216.000,6069.000,4144.032,77802.353,0.000,1196.246,0.000,92427.631
ReAtlas_biomass.1960,42.393240830619185,-73.23005711399375,1960,Berkshire,Massachusetts,25,003,25003,946.27299,134953,0.000,0.000,16105.000,20060.000,2244.924,14701.607,0.000,223.158,0.000,53334.689
ReAtlas_biomass.2164,39.784552371432106,-97.08774127217475,2164,Washington,Kansas,20,201,20201,898.76985,6483,105588.298,1931.464,2851.000,0.000,0.000,776.031,0.000,10.720,119827.512,230985.025
ReAtlas_biomass.1962,42.44723579193268,-71.46142424026647,1962,Middlesex,Massachusetts,25,017,25017,846.93641,1465396,0.000,21.401,6391.000,6691.000,11095.927,158496.741,12770.000,2423.179,0.000,197889.248
ReAtlas_biomass.1963,42.365570681946856,-71.89926195734526,1963,Worcester,Massachusetts,25,027,25027,1579.04077,750963,0.000,18.198,18739.000,21865.000,8380.915,80747.377,23224.000,1241.792,22.680,154238.962
ReAtlas_biomass.1966,42.33891031815388,-71.07243016390117,1966,Suffolk,Massachusetts,25,025,25025,60.00406,689807,0.000,0.000,0.000,0.000,2020.536,74753.216,0.000,1140.665,0.000,77914.417
ReAtlas_biomass.2598,40.59510033529809,-91.41664328503725,2598,Lee,Iowa,19,111,19111,538.7658,38052,132379.043,1047.371,14629.000,10677.000,493.682,4287.964,2694.755,62.923,92621.491,258893.229
ReAtlas_biomass.2602,34.78589333062809,-84.76389766114295,2602,Murray,Georgia,13,213,13213,346.9977,36506,0.000,963.294,37677.000,16302.000,510.012,4106.016,0.000,60.366,235.872,59854.560
ReAtlas_biomass.2603,34.80199261403029,-84.99020083125919,2603,Whitfield,Georgia,13,313,13313,290.47324,83525,0.000,1187.303,8588.000,29871.000,783.389,9160.637,7838.061,138.117,684.029,58250.537
ReAtlas_biomass.2616,34.333520744405824,-85.23437741887923,2616,Floyd,Georgia,13,115,13115,518.4884,90565,2845.312,1123.994,42164.000,263934.000,73.483,10371.349,0.000,149.758,7813.260,328475.156
ReAtlas_biomass.610,28.812947479434243,-95.94237343212853,610,Matagorda,Texas,48,321,48321,1144.91755,37957,87132.555,113.174,0.000,0.000,0.000,4443.561,0.000,62.766,222.264,91974.320
ReAtlas_biomass.2623,34.2427209379186,-84.45933343289491,2623,Cherokee,Georgia,13,057,13057,434.10677,141903,0.000,2372.038,15771.000,15756.000,2613.096,15617.930,0.000,234.651,10.886,52375.601
ReAtlas_biomass.2625,34.130806481400256,-83.58779021628348,2625,Jackson,Georgia,13,157,13157,343.05137,41589,495.486,4327.544,18107.000,95967.000,779.306,4743.227,0.000,68.772,881.798,125370.133
ReAtlas_biomass.2626,34.12267051436814,-82.83446711276184,2626,Elbert,Georgia,13,105,13105,374.56818,20511,95.900,608.316,32789.000,8267.000,12.247,2204.967,0.000,33.917,7555.162,51566.509
ReAtlas_biomass.2003,30.835135544075165,-90.03766512194295,2003,Washington,Louisiana,22,117,22117,675.96301,43926,2529.505,744.981,62790.000,234558.000,261.130,4544.932,695.849,72.636,6471.965,312668.998
ReAtlas_biomass.2004,30.741664690785164,-92.40368065531231,2004,Evangeline,Louisiana,22,039,22039,679.61927,35434,80238.486,24.808,49454.000,0.000,248.882,3774.612,0.000,58.594,14145.516,147944.898
ReAtlas_biomass.2005,30.61247163545123,-90.40594548894495,2005,Tangipahoa,Louisiana,22,105,22105,823.06432,100588,1132.614,1106.364,55870.000,282065.000,2228.594,11016.770,2450.000,166.332,11670.221,367705.895
ReAtlas_biomass.2006,30.824640547542764,-90.73924035082223,2006,,Louisiana,22,091,22091,409.45916,10525,0.000,240.007,69214.000,0.000,4.082,1158.028,0.000,17.404,7996.061,78629.582
ReAtlas_biomass.2007,30.824822910348438,-91.07381793847861,2007,,Louisiana,22,037,22037,455.69286,21360,830.584,63.984,76500.000,69544.000,493.682,2347.491,0.000,35.321,33138.202,182953.263
ReAtlas_biomass.2008,30.849222833850675,-91.46375047903058,2008,,Louisiana,22,125,22125,426.01943,15111,1305.150,16.636,52572.000,0.000,248.882,1804.614,0.000,24.988,23656.147,79628.417
ReAtlas_biomass.2009,30.661687896395414,-92.85765776800304,2009,Allen,Louisiana,22,003,22003,765.67158,25440,21284.900,10.269,67307.000,0.000,0.000,2670.428,0.000,42.068,2346.473,93661.138
ReAtlas_biomass.2010,30.643679474992048,-93.36013125112413,2010,Beauregard,Louisiana,22,011,22011,1165.97874,32986,5235.249,115.504,58256.000,0.000,12.247,3798.722,0.000,54.546,33634.894,101107.162
ReAtlas_biomass.2011,30.575078126542444,-92.08723462789249,2011,,Louisiana,22,097,22097,938.84273,87700,183332.667,53.227,38164.000,141900.000,1477.865,9074.451,2450.000,145.021,9868.522,386465.752
ReAtlas_biomass.2012,30.516107952808994,-91.08086728236026,2012,,Louisiana,22,033,22033,470.54319,412852,0.000,122.639,45878.000,0.000,2882.390,43770.093,0.000,682.692,881.798,94217.613
ReAtlas_biomass.617,27.77767868266652,-97.49410414234308,617,Nueces,Texas,48,355,48355,841.30654,313645,160791.643,34.640,0.000,0.000,306.036,35805.303,17185.290,518.643,4921.560,219563.115
ReAtlas_biomass.2018,30.265442316408183,-92.38742814551131,2018,Acadia,Louisiana,22,001,22001,657.59758,58861,138706.893,12.528,5565.000,0.000,746.647,6059.360,1470.610,97.333,844.603,153502.974
ReAtlas_biomass.2019,30.20821433743837,-92.09545015910089,2019,Lafayette,Louisiana,22,055,22055,270.28971,190503,80767.050,20.084,21115.000,0.000,1310.630,19771.144,6573.161,315.016,32.659,129904.745
ReAtlas_biomass.2020,30.20492060347057,-90.86982447100632,2020,Ascension,Louisiana,22,005,22005,302.86314,76627,105264.250,11.091,7424.000,0.000,758.894,8223.974,5862.922,126.710,0.000,127671.841
ReAtlas_biomass.2169,39.812011246181,-95.10035992647761,2169,Doniphan,Kansas,20,043,20043,397.0674,8249,98976.043,104.273,4263.000,6818.000,252.965,1078.206,0.000,13.641,67865.818,179371.946
ReAtlas_biomass.2023,30.033246093931922,-89.88431741127624,2023,Orleans,Louisiana,22,071,22071,349.68547,484674,0.000,0.616,0.000,0.000,1747.159,49146.555,7829.787,801.457,0.000,59525.574
ReAtlas_biomass.2024,30.43138503587663,-89.89464549552369,2024,,Louisiana,22,103,22103,1109.96315,191268,0.000,26.776,29921.000,0.000,1747.159,19485.596,1002.001,316.281,0.000,52498.813
ReAtlas_biomass.2035,29.408212815661514,-90.86674623888564,2035,Terrebonne,Louisiana,22,109,22109,1481.06017,104503,52631.950,7.599,0.000,0.000,248.882,10869.076,2359.492,172.806,0.000,66289.805
ReAtlas_biomass.2048,38.5223383809693,-83.33621066549622,2048,Lewis,Kentucky,21,135,21135,495.71274,14092,2324.503,109.132,51345.000,40042.000,493.682,1527.195,0.000,23.303,571.990,96436.805
ReAtlas_biomass.2108,37.33804203842375,-87.5745088373427,2108,Hopkins,Kentucky,21,107,21107,554.23523,46519,34693.334,832.417,25335.000,13769.000,510.012,5586.091,0.000,76.924,61238.268,142041.046
ReAtlas_biomass.2109,37.32683241005194,-84.93634461002227,2109,Casey,Kentucky,21,045,21045,445.72674,15447,3507.158,622.770,31880.000,30830.000,252.965,1674.040,0.000,25.543,4988.693,73781.169
ReAtlas_biomass.2542,42.20804814758807,-90.5274688222188,2542,Jackson,Iowa,19,097,19097,649.74928,20296,151729.095,1816.105,18585.000,0.000,277.459,2184.195,0.000,33.561,236479.824,411105.239
ReAtlas_biomass.623,26.410166862038224,-98.22519286972943,623,Hidalgo,Texas,48,215,48215,1582.57893,569463,217569.166,13.059,0.000,0.000,1816.560,62035.246,9929.241,941.664,0.000,292304.935
ReAtlas_biomass.2077,37.802589291760476,-86.41563639803556,2077,Breckinridge,Kentucky,21,027,21027,585.52923,18648,15850.982,829.789,35506.000,60592.000,4.082,2111.723,0.000,30.836,93458.383,208383.795
ReAtlas_biomass.2078,37.7238535009108,-85.97800548264266,2078,Hardin,Kentucky,21,093,21093,630.05004,94174,31713.076,772.395,17697.000,13832.000,269.294,10569.054,5802.675,155.726,22726.267,103537.487
ReAtlas_biomass.2082,37.75730040590054,-85.4474963203609,2082,Nelson,Kentucky,21,179,21179,424.18724,37477,15612.061,1868.891,13502.000,3598.000,1016.842,4424.621,0.000,61.972,10000.973,50085.360
ReAtlas_biomass.2083,37.80762877777881,-87.59980312721524,2083,Henderson,Kentucky,21,101,21101,467.23612,44829,95238.308,245.736,18737.000,0.000,12.247,4949.041,0.000,74.129,8208.346,127464.807
ReAtlas_biomass.3089,32.50815134676719,-86.66685384807889,3089,Autauga,Alabama,01,001,01001,604.4367,43671,3791.370,193.891,25577.000,63603.000,16.330,5063.754,0.000,72.214,21881.664,120199.224
ReAtlas_biomass.3090,32.41430403474891,-85.72887238260725,3090,Macon,Alabama,01,087,01087,613.24471,24105,1835.043,11.320,25192.000,11595.000,0.000,2444.277,2533.359,39.860,66668.314,110319.173
ReAtlas_biomass.3091,32.26874167046635,-87.79626860386045,3091,Marengo,Alabama,01,091,01091,982.84636,22539,0.000,317.119,115275.000,104354.000,767.059,3102.503,0.000,37.270,120822.710,344675.661
ReAtlas_biomass.3092,32.28639522353469,-85.16217366766725,3092,Russell,Alabama,01,113,01113,647.38308,49756,564.982,7.204,35445.000,0.000,24.494,5226.881,0.000,82.277,49059.562,90410.400
ReAtlas_biomass.3093,32.2337094948087,-86.20938518196294,3093,Montgomery,Alabama,01,101,01101,799.76267,223510,1072.779,597.222,22491.000,69848.000,2580.437,23935.116,16145.111,369.596,73265.472,210304.733
ReAtlas_biomass.3094,32.18440023048829,-86.65319329482469,3094,Lowndes,Alabama,01,085,01085,725.03109,13473,2914.289,1120.816,29034.000,0.000,0.000,1547.739,0.000,22.279,68578.877,103218.001
ReAtlas_biomass.3095,32.0045192003074,-88.20165005400122,3095,Choctaw,Alabama,01,023,01023,920.84669,15922,0.000,124.233,106614.000,130170.000,0.000,2340.751,0.000,26.329,3020.976,242296.289
ReAtlas_biomass.3096,32.093149910107044,-85.70533484103555,3096,Bullock,Alabama,01,011,01011,626.05479,11714,0.000,189.553,20597.000,0.000,0.000,1460.154,0.000,19.370,54818.467,77084.544
ReAtlas_biomass.3097,32.04872596130894,-87.2632404499968,3097,Wilcox,Alabama,01,131,01131,907.46612,13183,0.000,74.098,97118.000,295904.000,244.800,1427.553,0.000,21.799,70701.725,465491.975
ReAtlas_biomass.3098,31.88338790662182,-85.39963769841972,3098,Barbour,Alabama,01,005,01005,904.51536,29038,5465.809,1675.852,57580.000,58710.000,996.430,3852.290,0.000,48.017,95958.173,224286.571
ReAtlas_biomass.3099,31.839418439315835,-85.92919284099924,3099,Pike,Alabama,01,109,01109,672.09355,29605,6214.859,3397.124,16901.000,0.000,265.212,3183.544,0.000,48.955,72204.048,102214.743
ReAtlas_biomass.3100,31.746016999185407,-86.32454344357117,3100,Crenshaw,Alabama,01,041,01041,610.87382,13665,1698.841,440.098,28237.000,233728.000,4.082,1476.428,0.000,22.596,76781.779,342388.824
ReAtlas_biomass.3101,31.588870973711487,-87.8423461309471,3101,Clarke,Alabama,01,025,01025,1252.50497,27867,0.000,8.233,135884.000,393355.000,277.459,3733.549,0.000,46.081,3951.763,537256.085
ReAtlas_biomass.3102,31.744367165696964,-86.6742006866319,3102,Butler,Alabama,01,013,01013,777.92003,21399,625.604,2256.377,62076.000,0.000,265.212,2896.126,0.000,35.385,20499.091,88653.794
ReAtlas_biomass.3103,31.530282683522756,-87.34676785566961,3103,Monroe,Alabama,01,099,01099,1034.08173,24324,3534.300,302.528,87001.000,547004.000,0.000,3283.504,5126.962,40.222,20286.806,666579.322
ReAtlas_biomass.3104,31.541157534908905,-85.23014086464883,3104,Henry,Alabama,01,067,01067,568.3295,16310,14564.104,763.958,28170.000,213592.000,12.247,2016.975,0.000,26.970,22578.394,281724.648
ReAtlas_biomass.25,41.71625995888905,-105.80326635678958,25,Albany,Wyoming,56,001,56001,4308.78628,32014,0.000,2.492,4826.000,254933.000,36.742,3788.298,0.000,52.938,0.000,263639.471
ReAtlas_biomass.3105,31.467515273339437,-87.04585612611359,3105,Conecuh,Alabama,01,035,01035,852.94744,14089,1701.007,39.107,63534.000,50209.000,252.965,1791.762,0.000,23.298,47290.522,164841.661
ReAtlas_biomass.3106,31.407007215542976,-88.1767458753614,3106,Washington,Alabama,01,129,01129,1088.54165,18097,226.523,411.189,78397.000,29081.000,0.000,2288.959,0.000,29.925,6357.658,116792.254
ReAtlas_biomass.3107,31.408010853379693,-85.60388490908937,3107,Dale,Alabama,01,045,01045,562.73047,49129,6865.675,2057.954,24189.000,120.000,16.330,5526.423,0.000,81.240,30100.896,68957.518
ReAtlas_biomass.3048,34.87097294852897,-87.70769253637974,3048,Lauderdale,Alabama,01,077,01077,718.78449,87966,19057.987,646.405,28042.000,21202.000,807.883,9192.203,6269.170,145.461,39479.076,124842.185
ReAtlas_biomass.3049,34.77515667341375,-87.03115004754119,3049,Limestone,Alabama,01,083,01083,607.0974,65676,39541.111,689.303,9185.000,140.000,534.506,6659.629,5109.108,108.602,35192.102,97159.361
ReAtlas_biomass.3050,34.73425660156979,-86.52374858801221,3050,Madison,Alabama,01,089,01089,812.84163,276700,40038.764,119.998,9312.000,0.000,3514.730,28057.729,11747.119,457.551,13692.370,106940.260
ReAtlas_biomass.3051,34.737027477528066,-87.77856698301119,3051,Colbert,Alabama,01,033,01033,623.60927,54984,17568.528,1175.449,13209.000,0.000,1033.171,5666.227,2450.000,90.922,27101.693,68294.990
ReAtlas_biomass.3052,34.53019961858896,-85.81750313589797,3052,DeKalb,Alabama,01,049,01049,778.65133,64452,10880.135,5875.539,22912.000,0.000,53.071,6626.294,5583.973,106.578,27697.270,79734.860
ReAtlas_biomass.55,38.75430347792818,-79.8170931042263,55,Randolph,,54,083,54083,1039.92604,28262,0.000,10.646,87549.000,0.000,1082.160,3031.412,0.000,46.734,17.690,91737.643
ReAtlas_biomass.56,38.899457915870364,-80.22740966340479,56,Upshur,,54,097,54097,354.86085,23404,0.000,7.851,25574.000,43637.000,767.059,2284.811,0.000,38.701,0.000,72309.422
ReAtlas_biomass.3053,34.55222589133904,-87.31869648550006,3053,Lawrence,Alabama,01,079,01079,718.06674,34803,26005.599,2573.146,16999.000,119262.000,489.600,3710.628,0.000,57.550,156860.777,325958.300
ReAtlas_biomass.3054,34.4956857499812,-86.83057221375006,3054,Morgan,Alabama,01,103,01103,599.04936,111064,7988.895,2941.917,11326.000,28847.000,2045.030,11534.370,7847.161,183.655,18881.554,91595.582
ReAtlas_biomass.3055,34.34989628564841,-86.32060777077277,3055,Marshall,Alabama,01,095,01095,623.19767,82231,5607.852,7561.237,15694.000,172539.000,522.259,8519.887,2643.320,135.977,20444.206,233667.737
ReAtlas_biomass.2870,38.8257738129691,-104.56421627607625,2870,,Colorado,08,041,08041,2129.55315,516929,53.857,684.459,1180.000,0.000,2878.308,52989.924,36381.830,854.794,0.000,95023.171
ReAtlas_biomass.353,40.66872224739795,-111.90965376325809,353,,Utah,49,035,49035,807.62715,898387,2664.787,10.650,0.000,0.000,11300.191,90405.422,24458.000,1485.573,0.000,130324.623
ReAtlas_biomass.2872,38.74055380582013,-106.24038090878761,2872,Chaffee,Colorado,08,015,08015,1014.96272,16242,0.000,143.674,0.000,181468.000,32.659,1837.956,0.000,26.858,0.000,183509.147
ReAtlas_biomass.2879,38.10566158852479,-106.21909624796726,2879,Saguache,Colorado,08,109,08109,3170.23912,5917,60427.343,448.233,3928.000,0.000,0.000,603.429,0.000,9.784,0.000,65416.789
ReAtlas_biomass.2547,42.03959757788457,-96.0163242201167,2547,Monona,Iowa,19,133,19133,698.84853,10020,285943.524,450.054,839.000,0.000,0.000,1124.285,0.000,16.569,53767.930,342141.362
ReAtlas_biomass.635,36.43816648766653,-81.85339133424688,635,Johnson,Tennessee,47,091,47091,302.7294,17499,453.046,8.749,7660.000,54031.000,497.765,1951.618,372.990,28.936,0.000,65004.105
ReAtlas_biomass.636,36.383724938859935,-84.51804570131651,636,Scott,Tennessee,47,151,47151,533.21814,21127,0.000,37.755,19898.000,26163.000,762.977,2337.419,833.069,34.936,0.000,50067.155
ReAtlas_biomass.642,36.34264093521754,-85.2905746643722,642,Overton,Tennessee,47,133,47133,434.81711,20118,415.292,152.711,26979.000,22668.000,8.165,2230.122,441.537,33.267,4292.870,57220.964
ReAtlas_biomass.2554,41.881244550149276,-90.52042764705334,2554,Clinton,Iowa,19,045,19045,710.19293,50149,341866.449,1105.145,463.000,0.000,738.482,5444.920,9663.172,82.926,98897.501,458261.595
ReAtlas_biomass.645,36.354854415687136,-89.15054159252989,645,Obion,Tennessee,47,131,47131,555.34588,32450,139435.008,723.625,9246.000,19947.000,8.165,3632.283,6896.000,53.659,45260.208,225201.948
ReAtlas_biomass.647,36.2826111120227,-88.738759198297,647,Weakley,Tennessee,47,183,47183,581.81253,34895,120223.365,1407.170,22990.000,8722.000,252.965,3710.724,1577.000,57.702,108052.963,266993.889
ReAtlas_biomass.2556,41.68651994125706,-95.81941542470798,2556,Harrison,Iowa,19,085,19085,700.91499,15666,286555.758,538.461,5511.000,0.000,244.800,1797.418,0.000,25.905,74288.794,368962.136
ReAtlas_biomass.2559,41.67294552718386,-93.57289643287288,2559,Polk,Iowa,19,153,19153,591.90846,374601,182495.552,179.176,567.000,2627.000,4751.878,38637.934,43361.922,619.440,24249.456,297489.358
ReAtlas_biomass.656,36.186907604438396,-86.78588561745619,656,Davidson,Tennessee,47,037,47037,525.71219,569891,435.050,8.559,1510.000,476.000,8519.573,60692.813,9940.434,942.372,0.000,82524.801
ReAtlas_biomass.657,36.14285737758064,-84.62883578578709,657,Morgan,Tennessee,47,129,47129,522.39482,19757,0.000,30.559,37365.000,18052.000,4.082,2191.733,574.694,32.670,719.410,58970.148
ReAtlas_biomass.659,36.08598090005463,-88.07089345607167,659,Benton,Tennessee,47,005,47005,436.20415,16537,5934.047,99.022,17688.000,5641.000,489.600,1758.539,5117.161,27.346,34150.637,70905.353
ReAtlas_biomass.679,35.835973692281506,-89.12762803397453,679,Crockett,Tennessee,47,033,47033,265.47667,14532,48245.099,62.770,812.000,0.000,248.882,1636.108,0.000,24.030,22823.338,73852.227
ReAtlas_biomass.680,35.801487927218915,-87.4732442326492,680,Hickman,Tennessee,47,081,47081,612.70103,22295,3412.122,184.672,39518.000,12881.000,754.812,2552.403,868.518,36.867,3762.158,63970.552
ReAtlas_biomass.2570,41.336865729630844,-91.71568748082052,2570,Washington,Iowa,19,183,19183,570.42046,20670,229682.621,3837.134,12022.000,0.000,501.847,2313.551,0.000,34.180,226801.814,475193.148
ReAtlas_biomass.682,35.74290223407557,-89.64982625113407,682,Lauderdale,Tennessee,47,097,47097,507.13531,27101,82528.901,76.700,5531.000,0.000,754.812,2972.692,1452.468,44.814,62379.072,155740.459
ReAtlas_biomass.2574,41.33375396323101,-95.58835274591297,2574,Pottawattamie,Iowa,19,155,19155,959.94648,87704,387895.836,713.396,475.000,4523.000,265.212,9318.502,0.000,145.027,54001.987,457337.960
ReAtlas_biomass.687,35.61741534295051,-84.92948633543651,687,Rhea,Tennessee,47,143,47143,336.40452,28400,1055.282,73.701,16720.000,32682.000,493.682,3110.827,1510.886,46.962,7571.491,63264.830
ReAtlas_biomass.688,35.620768426951614,-88.39694583253325,688,Henderson,Tennessee,47,077,47077,525.9142,25522,18357.607,398.830,17370.000,9469.000,754.812,2804.782,877.000,42.203,80254.541,130328.774
ReAtlas_biomass.689,35.610090166720376,-89.28664637301418,689,Haywood,Tennessee,47,075,47075,534.15122,19797,72754.499,107.817,13521.000,0.000,248.882,2468.327,982.269,32.736,56141.165,146256.695
ReAtlas_biomass.690,35.67795163276373,-85.4346836466099,690,,Tennessee,47,175,47175,274.59225,5508,0.000,8.559,30549.000,14097.000,244.800,676.499,455.761,9.108,4746.924,50787.651
ReAtlas_biomass.691,35.612644311671424,-88.84177549501848,691,Madison,Tennessee,47,113,47113,558.63,91837,42412.364,435.139,6989.000,16688.000,1747.159,9947.478,9495.000,151.862,51596.093,139462.095
ReAtlas_biomass.692,35.92465624591008,-85.44846969011687,692,White,Tennessee,47,185,47185,379.41306,23102,1378.895,301.007,20398.000,51228.000,1510.524,2547.440,525.351,38.201,978.869,78906.286
ReAtlas_biomass.699,35.43863349370508,-84.23304952594953,699,Monroe,Tennessee,47,123,47123,652.57929,38961,2557.732,385.368,22592.000,20865.000,293.789,4324.661,490.000,64.426,0.000,51572.976
ReAtlas_biomass.701,35.44306565252516,-84.63097111003063,701,McMinn,Tennessee,47,107,47107,432.29509,49015,2052.497,479.346,13184.000,89988.000,252.965,5212.240,1403.000,81.051,1037.837,113690.937
ReAtlas_biomass.2491,42.7200598145787,-112.81442336342062,2491,Power,Idaho,16,077,16077,1442.57564,7538,83578.729,57.991,363.000,0.000,0.000,791.640,0.000,12.465,0.000,84803.824
ReAtlas_biomass.703,35.420265773024504,-88.59747389789251,703,Chester,Tennessee,47,023,47023,288.73717,15540,8108.573,83.190,14842.000,5678.000,244.800,1743.299,459.627,25.697,27379.296,58564.482
ReAtlas_biomass.2492,42.72043385633945,-111.5993552989703,2492,Caribou,Idaho,16,029,16029,1798.62158,7304,59193.936,108.300,1072.000,0.000,0.000,679.103,0.000,12.078,0.000,61065.417
ReAtlas_biomass.2494,42.457476626214,-114.52336652577918,2494,,Idaho,16,083,16083,1928.47689,64284,121556.787,3889.435,0.000,0.000,293.789,6340.046,0.000,106.300,0.000,132186.356
ReAtlas_biomass.706,35.247833646527575,-87.7993792173857,706,Wayne,Tennessee,47,181,47181,735.59433,16842,3348.795,122.070,41996.000,35718.000,4.082,1881.753,0.000,27.850,9464.364,92562.914
ReAtlas_biomass.707,35.51228412535955,-89.82518550032006,707,Tipton,Tennessee,47,167,47167,474.67502,51271,72291.350,51.692,3399.000,0.000,4.082,5542.922,1917.706,84.782,26328.758,109620.292
ReAtlas_biomass.708,35.22138961763375,-85.20777573488274,708,Hamilton,Tennessee,47,065,47065,575.70087,307896,302.030,52.643,14497.000,35910.000,2829.319,33286.246,16219.161,509.137,0.000,103605.537
ReAtlas_biomass.709,35.22874342141698,-87.40508187516451,709,Lawrence,Tennessee,47,099,47099,617.91307,39926,18602.014,422.606,23697.000,23545.000,501.847,4245.719,2014.074,66.022,88864.776,161959.057
ReAtlas_biomass.710,35.22415188505695,-87.03095025085298,710,Giles,Tennessee,47,055,47055,611.17426,29447,12355.822,579.665,22560.000,22007.000,261.130,3131.385,699.686,48.694,16505.143,78148.525
ReAtlas_biomass.727,45.59017616632705,-98.35433817600278,727,Brown,,46,013,46013,1731.21252,35460,408128.600,665.765,0.000,0.000,252.965,3435.387,0.000,58.637,386472.643,799013.997
ReAtlas_biomass.728,45.617048900093195,-96.85157608281031,728,Roberts,,46,109,46109,1135.3563,10016,222834.069,975.851,2726.000,0.000,8.165,893.431,0.000,16.562,328992.451,556446.529
ReAtlas_biomass.874,40.723547734779935,-76.23124243634419,874,Schuylkill,Pennsylvania,42,107,42107,783.21975,150336,16893.523,618.997,33753.000,14347.000,1273.889,15301.676,14056.000,248.596,37426.990,133919.670
ReAtlas_biomass.875,40.641097400125645,-79.13064022285377,875,Indiana,Pennsylvania,42,063,42063,834.85203,89605,13146.624,26.846,33178.000,26415.000,20.412,9266.971,858.051,148.171,2287.958,85348.034
ReAtlas_biomass.876,40.7630875170562,-77.07812043029696,876,Snyder,Pennsylvania,42,109,42109,332.14293,37546,13948.867,914.490,19875.000,21465.000,2302.078,3912.423,0.000,62.086,22153.824,84633.767
ReAtlas_biomass.2451,37.333685314160846,-88.56195897206868,2451,Pope,Illinois,17,151,17151,374.64716,4413,8025.660,62.536,11778.000,0.000,0.000,560.057,0.000,7.297,58655.923,79089.473
ReAtlas_biomass.881,40.402790111207395,-77.96843031306375,881,Huntingdon,Pennsylvania,42,061,42061,889.33589,45586,7695.089,105.515,55428.000,44726.000,1233.065,4620.560,0.000,75.381,3976.711,117860.321
ReAtlas_biomass.882,40.484977244643,-78.70357917821573,882,Cambria,Pennsylvania,42,021,42021,693.38135,152598,10189.407,20.732,36975.000,33203.000,1290.218,15889.566,1674.720,252.336,10567.066,110062.045
ReAtlas_biomass.905,39.98376571773239,-75.75006526628925,905,Chester,Pennsylvania,42,029,42029,759.45276,433501,31939.330,402.653,12323.000,604.000,5347.620,43439.155,23589.000,716.837,7733.880,126095.476
ReAtlas_biomass.911,45.41095815737071,-117.9877239743958,911,Union,Oregon,41,061,41061,2038.59408,24530,26628.689,44.101,8582.000,313173.000,20.412,2893.248,0.000,40.563,0.000,351382.013
ReAtlas_biomass.912,45.43969369275818,-120.20965787911572,912,Gilliam,Oregon,41,021,41021,1222.85714,1915,24391.621,14.451,0.000,0.000,0.000,288.301,39333.161,3.167,0.000,64030.701
ReAtlas_biomass.935,43.32767691543961,-123.10761815482181,935,Douglas,Oregon,41,019,41019,5069.96663,100399,0.000,65.228,284612.000,636326.000,595.742,12625.078,5117.161,166.020,0.000,939507.229
ReAtlas_biomass.2463,45.8959882464923,-115.57482339916231,2463,Idaho,Idaho,16,049,16049,8503.1554,15511,60366.886,121.900,67144.000,0.000,8.165,1986.844,0.000,25.649,0.000,129653.444
ReAtlas_biomass.937,42.80714666059552,-121.59409165846947,937,Klamath,Oregon,41,035,41035,6135.65888,63775,35711.086,840.639,71867.000,311994.000,1053.583,7758.164,2450.000,105.458,0.000,431779.929
ReAtlas_biomass.938,43.139414731819826,-124.09372147695245,938,Coos,Oregon,41,011,41011,1609.68806,62779,0.000,488.842,125610.000,179586.000,1000.512,7655.432,0.000,103.811,0.000,314444.597
ReAtlas_biomass.2465,46.230946857752585,-116.36464566086542,2465,Lewis,Idaho,16,061,16061,479.94988,3747,67633.757,3.041,16051.000,0.000,0.000,348.384,0.000,6.196,0.000,84042.379
ReAtlas_biomass.2507,43.3795005875143,-96.23252094021387,2507,Lyon,Iowa,19,119,19119,587.63669,11763,291215.139,2986.514,38.000,0.000,252.965,1304.066,0.000,19.451,21783.686,317599.821
ReAtlas_biomass.2419,39.134523697616295,-90.6946781074297,2419,Calhoun,Illinois,17,013,17013,283.6869,5084,28933.423,130.637,10193.000,0.000,0.000,540.631,0.000,8.407,50246.179,90052.277
ReAtlas_biomass.744,44.7240737015834,-100.20328358516764,744,Sully,,46,119,46119,1070.35616,1556,72755.661,57.122,0.000,0.000,0.000,138.796,0.000,2.573,75798.374,148752.526
ReAtlas_biomass.2428,38.757517902002284,-88.47409280536854,2428,Clay,Illinois,17,025,17025,469.83771,14560,87579.075,719.687,12945.000,19165.000,0.000,1729.866,0.000,24.076,76912.416,199075.120
ReAtlas_biomass.1090,39.441437703254884,-84.57630536010899,1090,Butler,Ohio,39,017,39017,470.12006,332807,29171.965,396.576,4442.000,11246.000,3021.048,37839.360,8029.161,550.330,4708.368,99404.808
ReAtlas_biomass.1091,39.422299203972415,-84.17109380467465,1091,Warren,Ohio,39,165,39165,407.3255,158383,29329.326,106.820,354.000,0.000,1991.959,17623.324,21329.452,261.902,2966.544,73963.326
ReAtlas_biomass.1126,42.95516019414771,-75.61820786866141,1126,Madison,,36,053,36053,661.5528,69441,13590.386,305.852,20842.000,6741.000,8.165,7606.239,5226.361,114.828,2916.648,57351.479
ReAtlas_biomass.2372,41.3674117322399,-89.51425174269392,2372,Bureau,Illinois,17,011,17011,873.30251,35503,457925.220,1311.631,3452.000,0.000,20.412,3956.938,0.000,58.708,44171.568,510896.477
ReAtlas_biomass.2373,41.367169719081055,-90.1481475948043,2373,Henry,Illinois,17,073,17073,825.59904,51020,439901.975,2906.859,4015.000,0.000,8.165,5607.011,2450.000,84.367,80412.394,535385.771
ReAtlas_biomass.1129,42.80857701180147,-77.28884350016449,1129,Ontario,,36,069,36069,662.43089,100224,33025.864,250.562,11877.000,3913.000,1506.442,10806.799,7708.606,165.730,9611.784,78865.786
ReAtlas_biomass.1130,43.19723688923586,-78.76773516865262,1130,Niagara,,36,063,36063,526.9346,219846,30726.393,136.600,125.000,0.000,2244.924,23959.984,21781.000,363.537,4517.856,83855.294
ReAtlas_biomass.1131,42.78297649678606,-76.78444037704699,1131,Seneca,,36,099,36099,390.49346,33342,32555.862,124.418,1683.000,0.000,248.882,3746.509,37513.161,55.134,1419.768,77346.735
ReAtlas_biomass.1132,42.730198881665494,-77.77511637850898,1132,Livingston,,36,051,36051,640.44664,64328,43114.753,251.945,4377.000,9925.000,273.377,7059.554,12419.001,106.373,23854.824,101381.827
ReAtlas_biomass.751,44.37308574461881,-103.75540053443649,751,Lawrence,,46,081,46081,800.31414,21802,43.086,85.788,39535.000,100986.000,12.247,1944.748,0.000,36.052,0.000,142642.920
ReAtlas_biomass.752,44.32422834285833,-100.09170474007965,752,Hughes,,46,065,46065,800.30244,16481,24831.132,540.000,0.000,0.000,4.082,1651.672,0.000,27.253,47315.923,74370.063
ReAtlas_biomass.1147,42.270729035374686,-78.68631245025617,1147,Cattaraugus,,36,009,36009,1322.2619,83955,6877.891,242.803,50832.000,53880.000,1286.136,9158.086,0.000,138.828,13041.000,135456.744
ReAtlas_biomass.2390,40.44966768355879,-90.16290606823827,2390,Fulton,Illinois,17,057,17057,882.59575,38250,264261.880,1357.171,28810.000,12137.000,4.082,4339.833,0.000,63.250,46822.406,357795.623
ReAtlas_biomass.2391,40.41653797246466,-91.20680490247423,2391,Hancock,Illinois,17,067,17067,814.53861,20121,314904.317,1789.461,12873.000,10740.000,4.082,2412.001,0.000,33.272,105538.205,448294.338
ReAtlas_biomass.755,44.10293906869983,-103.03531064004477,755,Pennington,,46,103,46103,2784.31608,88565,12616.740,176.751,35945.000,32398.000,807.883,8263.156,0.000,146.451,0.000,90353.980
ReAtlas_biomass.2511,43.085098254030925,-96.2163765283126,2511,Sioux,Iowa,19,167,19167,768.58588,31589,441567.261,8129.733,1.000,0.000,16.330,3712.123,2676.625,52.236,29904.941,486060.249
ReAtlas_biomass.109,44.98695004376481,-88.73349879148415,109,Menominee,Wisconsin,55,078,55078,364.9847,4562,0.000,0.000,67782.000,0.000,0.000,453.316,0.000,7.544,122.472,68365.332
ReAtlas_biomass.3083,32.743953807922146,-87.64598239554275,3083,Hale,Alabama,01,065,01065,656.47534,17185,0.000,188.808,40682.000,0.000,8.165,2014.921,0.000,28.417,58040.842,100963.153
ReAtlas_biomass.2998,35.42335016138412,-93.05532447374253,2998,Pope,Arkansas,05,115,05115,830.77295,54469,7074.393,5951.490,21223.000,154637.000,497.765,6392.682,0.000,90.070,2629.973,198496.373
ReAtlas_biomass.191,46.12034685326164,-122.73127460333475,191,Cowlitz,Washington,53,015,53015,1166.18413,92948,0.000,167.874,202429.000,726653.000,767.059,11496.218,8873.000,153.699,0.000,950539.850
ReAtlas_biomass.3000,35.57415001022256,-90.6634500564524,3000,Poinsett,Arkansas,05,111,05111,763.37822,25614,303496.055,2.857,38.000,0.000,24.494,2926.176,0.000,42.355,16982.784,323512.722
ReAtlas_biomass.193,45.80202582194661,-122.52162558173612,193,Clark,Washington,53,011,53011,656.31691,345238,0.000,647.589,5976.000,194860.000,5605.567,38952.606,12033.161,570.886,0.000,258645.810
ReAtlas_biomass.194,45.828842256484435,-120.74298934379104,194,Klickitat,Washington,53,039,53039,1904.33108,19161,18323.164,24.763,3027.000,0.000,4.082,2217.414,26593.161,31.685,0.000,50221.270
ReAtlas_biomass.3001,35.27801056980801,-91.7337775627771,3001,White,Arkansas,05,145,05145,1042.24724,67165,50400.314,1058.703,36002.000,39117.000,1298.383,7616.533,0.000,111.064,120624.941,256228.938
ReAtlas_biomass.196,44.68106122804076,-71.72373150516373,196,Essex,Vermont,50,009,50009,673.45918,6459,0.000,39.104,100874.000,18578.000,277.459,725.091,0.000,10.681,0.000,120504.336
ReAtlas_biomass.2762,30.55196551288587,-81.74031866988915,2762,Nassau,Florida,12,089,12089,667.07383,57663,0.000,67.663,62136.000,123033.000,510.012,6344.228,588.588,95.352,0.000,192774.843
ReAtlas_biomass.502,31.695309098354038,-106.30113374524626,502,,Texas,48,141,48141,1014.66408,679622,8819.056,1440.154,0.000,0.000,6576.602,74331.423,20133.000,1123.823,0.000,112424.058
ReAtlas_biomass.2763,30.548832589190837,-84.60741167093207,2763,Gadsden,Florida,12,039,12039,528.62356,45087,801.770,7.663,48015.000,90135.000,297.871,4858.219,0.000,74.556,12628.224,156818.304
ReAtlas_biomass.507,31.77513953187851,-94.15374283944857,507,Shelby,Texas,48,419,48419,834.53333,25224,0.000,2106.293,60735.000,109772.000,746.647,3437.862,0.000,41.710,0.000,176839.512
ReAtlas_biomass.775,43.292186338140255,-96.68167518073915,775,Lincoln,,46,083,46083,578.58964,24131,224779.068,782.285,312.000,0.000,277.459,2334.056,0.000,39.903,18920.563,247445.333
ReAtlas_biomass.778,43.17006807378833,-98.69340294744916,778,,,46,023,46023,1150.18403,9350,91443.022,1457.373,3036.000,0.000,244.800,1015.584,0.000,15.461,40346.359,137558.599
ReAtlas_biomass.2520,42.863290427769634,-91.25372153734122,2520,Clayton,Iowa,19,043,19043,792.83629,18678,215081.051,4690.546,21707.000,10639.000,497.765,1926.528,0.000,30.886,295081.315,549654.091
ReAtlas_biomass.2522,42.73605571426817,-96.25032838144614,2522,Plymouth,Iowa,19,149,19149,863.96163,24849,417875.408,3887.770,647.000,0.000,0.000,2835.371,0.000,41.090,75312.115,500598.754
ReAtlas_biomass.784,42.985103913179636,-97.39965104579869,784,Yankton,,46,135,46135,532.61759,21652,93942.517,714.445,587.000,0.000,248.882,2112.928,0.000,35.804,23884.762,121526.337
ReAtlas_biomass.785,42.96625828783224,-97.89984994389386,785,,,46,009,46009,581.31247,7260,59714.190,726.914,29.000,0.000,0.000,829.155,0.000,12.005,20047.306,81358.569
ReAtlas_biomass.786,42.781798162140866,-96.62602198514355,786,Union,,46,127,46127,467.08053,12584,162158.679,968.742,0.000,0.000,252.965,1485.618,0.000,20.809,26323.315,191210.128
ReAtlas_biomass.788,34.85018847947813,-82.45654130530849,788,Greenville,,45,045,45045,794.62057,379616,212.367,12.640,21962.000,0.000,5613.732,42807.134,10479.000,627.733,5350.666,87065.272
ReAtlas_biomass.789,34.88832859274892,-81.9700850174734,789,Spartanburg,,45,083,45083,819.1657,253791,190.637,534.618,29194.000,0.000,4303.102,28859.792,16795.000,419.669,10097.136,90393.954
ReAtlas_biomass.790,35.0119612927596,-81.62109716804093,790,Cherokee,,45,021,45021,397.00738,52537,122.794,12.065,26391.000,0.000,265.212,6133.821,7301.161,86.875,11174.890,51487.818
ReAtlas_biomass.791,34.99228078552019,-81.17934046888118,791,York,,45,091,45091,695.57954,164614,247.450,294.597,43883.000,92334.000,771.142,18456.537,8312.803,272.206,5024.074,169595.809
ReAtlas_biomass.793,34.76436498727611,-83.08946375062828,793,Oconee,,45,073,45073,673.59805,66215,812.925,1986.002,32255.000,41071.000,1498.277,7478.296,1835.702,109.493,3107.614,90154.309
ReAtlas_biomass.817,33.754669331222175,-81.91802640637965,817,Edgefield,,45,037,45037,506.58017,24595,398.639,364.252,34116.000,0.000,24.494,3016.370,0.000,40.670,14293.843,52254.268
ReAtlas_biomass.818,33.688477893154925,-80.20896500256606,818,Clarendon,,45,027,45027,695.62619,32502,30155.527,2156.286,20945.000,21900.000,489.600,3807.763,0.000,53.745,53294.371,132802.292
ReAtlas_biomass.819,33.598979838376586,-79.71031596351142,819,Williamsburg,,45,089,45089,937.43282,37217,16990.040,530.879,45518.000,0.000,8.165,4696.929,0.000,61.542,55629.504,123435.059
ReAtlas_biomass.820,33.67336177765839,-80.77920147150823,820,Calhoun,,45,017,45017,392.89548,15185,9469.008,423.555,15269.000,0.000,8.165,1966.510,0.000,25.110,37100.851,64262.199
ReAtlas_biomass.821,33.53863152662107,-81.60099672849844,821,Aiken,,45,003,45003,1080.32263,142552,2594.913,1906.886,45801.000,0.000,771.142,16449.010,7455.000,235.724,17902.685,93116.360
ReAtlas_biomass.822,33.445356454986644,-79.34259363747495,822,Georgetown,,45,043,45043,847.24877,55797,1689.355,1.915,43974.000,321514.000,758.894,6588.314,2890.000,92.266,6575.386,384084.130
ReAtlas_biomass.823,33.4432902573589,-80.79920075232923,823,Orangeburg,,45,075,45075,1127.84131,91582,33199.380,3298.717,62508.000,108201.000,550.836,10943.917,2677.904,151.440,121405.133,342936.328
ReAtlas_biomass.824,33.16503904076854,-79.905972848955,824,Berkeley,,45,015,45015,1228.28724,142651,2256.305,104.435,28247.000,159850.000,1008.677,16187.715,2684.000,235.888,2550.139,213124.160
ReAtlas_biomass.825,33.29207871047018,-81.48331905549611,825,Barnwell,,45,011,45011,557.531,23478,4340.019,287.821,20391.000,0.000,244.800,2982.528,0.000,38.823,46136.563,74421.554
ReAtlas_biomass.829,32.95176217323517,-81.34895856132565,829,Allendale,,45,005,45005,412.31947,11211,12297.030,2.681,16147.000,113332.000,252.965,1250.796,0.000,18.539,48199.536,191500.547
ReAtlas_biomass.830,32.78913247867502,-81.12772426582345,830,Hampton,,45,049,45049,562.64115,21386,8328.141,75.691,50777.000,99624.000,244.800,2749.127,0.000,35.364,12219.984,174054.106
ReAtlas_biomass.2844,40.594466461206714,-102.35919664873063,2844,Phillips,Colorado,08,095,08095,687.74182,4480,111400.312,143.929,0.000,0.000,0.000,547.660,0.000,7.408,0.000,112099.309
ReAtlas_biomass.834,41.87194583828537,-71.55907349583958,834,Providence,,44,007,44007,430.18124,621602,0.000,0.000,3578.000,13555.000,2833.402,64930.696,27223.000,1027.881,0.000,113147.979
ReAtlas_biomass.1069,40.09685039104922,-82.48341207903852,1069,Licking,Ohio,39,089,39089,687.70537,145491,74279.999,441.181,8105.000,0.000,1759.406,16286.996,0.000,240.584,7843.651,108956.816
ReAtlas_biomass.839,42.060363786208086,-80.0662559999729,839,Erie,Pennsylvania,42,049,42049,804.1029,280843,20279.727,35.282,8365.000,10118.000,4005.230,28179.087,15673.161,464.402,5615.568,92735.458
ReAtlas_biomass.840,41.77268502677539,-76.52272102910229,840,Bradford,Pennsylvania,42,015,42015,1160.87351,62761,4927.121,279.125,31532.000,19710.000,762.977,6599.542,5111.821,103.782,14873.544,83899.911
ReAtlas_biomass.841,41.772509552573425,-77.24347537238285,841,Tioga,Pennsylvania,42,117,42117,1137.3102,41373,2181.001,209.577,41851.000,15248.000,1718.582,4837.383,0.000,68.414,9276.120,75390.078
ReAtlas_biomass.901,40.002016761416876,-75.11837936155985,901,Philadelphia,Pennsylvania,42,101,42101,142.65734,1517550,0.000,0.000,252.000,0.000,2138.926,151249.485,0.000,2509.421,0.000,156149.832
ReAtlas_biomass.2477,43.435024843563646,-115.62649000893876,2477,Elmore,Idaho,16,039,16039,3100.62238,29130,42766.565,35.227,13891.000,0.000,248.882,2799.196,0.000,48.169,0.000,59789.040
ReAtlas_biomass.954,36.74993299628995,-101.49062849096242,954,Texas,Oklahoma,40,139,40139,2048.81229,20107,163412.492,23967.156,0.000,0.000,8.165,2325.573,0.000,33.249,0.000,189746.635
ReAtlas_biomass.2487,43.24699162665455,-112.30236672957827,2487,Bingham,Idaho,16,011,16011,2120.22094,41735,164761.886,816.289,1270.000,0.000,261.130,4061.950,0.000,69.013,0.000,171240.268
ReAtlas_biomass.2489,42.85971649228447,-113.67439923661394,2489,Minidoka,Idaho,16,067,16067,763.0192,20174,72077.507,861.618,0.000,0.000,8.165,2238.835,0.000,33.360,0.000,75219.486
ReAtlas_biomass.957,36.38020287060878,-97.17567289520127,957,Noble,Oklahoma,40,103,40103,742.43394,11411,46571.161,52.414,0.000,0.000,0.000,1216.757,0.000,18.869,5978.448,53837.650
ReAtlas_biomass.2400,39.979018519007404,-91.21353618793177,2400,Adams,Illinois,17,001,17001,871.28123,68277,256393.122,1685.471,7558.000,0.000,261.130,7623.675,6914.154,112.903,95702.342,376250.797
ReAtlas_biomass.2401,40.03130201141408,-89.78710485994006,2401,Menard,Illinois,17,129,17129,315.37507,12486,156021.571,606.087,67.000,0.000,0.000,1600.097,0.000,20.647,35271.936,193587.338
ReAtlas_biomass.2405,39.75010601039532,-89.60730030774059,2405,Sangamon,Illinois,17,167,17167,877.00456,188951,413194.099,895.370,300.000,596.000,1543.183,20910.011,11769.578,312.449,62106.912,511627.602
ReAtlas_biomass.971,35.963956676487044,-95.51462793999781,971,Wagoner,Oklahoma,40,145,40145,590.66463,57491,23403.327,119.832,0.000,0.000,750.730,6130.276,34895.000,95.067,560.650,65954.882
ReAtlas_biomass.2409,39.62106636336974,-90.96922581604804,2409,Pike,Illinois,17,149,17149,848.8728,17384,232057.908,2161.247,15921.000,8981.000,252.965,1939.389,0.000,28.746,194823.014,456165.270
ReAtlas_biomass.2410,39.58637043324084,-89.28052270146682,2410,Christian,Illinois,17,021,17021,715.71474,35372,356408.782,511.480,3849.000,0.000,248.882,4033.788,21497.161,58.491,44089.920,430697.505
ReAtlas_biomass.979,35.525020392877494,-97.99359877857285,979,Canadian,Oklahoma,40,017,40017,905.35038,87697,52193.269,394.723,0.000,0.000,8.165,9351.148,6209.161,145.016,9784.152,78085.634
ReAtlas_biomass.980,35.55064254922744,-97.40803921383679,980,Oklahoma,Oklahoma,40,109,40109,718.44653,660448,5344.306,29.451,0.000,0.000,8021.808,70786.814,36789.000,1092.117,0.000,122063.496
ReAtlas_biomass.2414,39.4350874475377,-88.80633566528687,2414,Shelby,Illinois,17,173,17173,768.05424,22893,262610.705,1057.099,7702.000,0.000,497.765,2525.215,0.000,37.856,71654.285,346084.924
ReAtlas_biomass.2415,39.26213130678154,-89.42264278386108,2415,Montgomery,Illinois,17,135,17135,709.69235,30652,278150.195,1089.853,20904.000,1402.000,12.247,3441.084,6225.541,50.686,66352.608,377628.214
ReAtlas_biomass.2416,39.26108954269341,-89.92697987059873,2416,Macoupin,Illinois,17,117,17117,867.69668,49019,328871.988,1268.541,25357.000,18554.000,281.542,5575.785,0.000,81.058,71431.114,451421.028
ReAtlas_biomass.984,35.2034986548869,-98.35856698334885,984,Caddo,Oklahoma,40,015,40015,1290.29166,30150,61029.269,573.756,0.000,0.000,4.082,3668.800,0.000,49.856,41047.171,106372.934
ReAtlas_biomass.990,34.944032147302984,-94.74745858369681,990,,Oklahoma,40,079,40079,1608.02521,48109,8637.635,1222.510,56142.000,0.000,4.082,5311.432,0.000,79.553,0.000,71397.212
ReAtlas_biomass.2421,39.0929962019238,-90.37525419481193,2421,Jersey,Illinois,17,083,17083,377.01676,21668,101379.819,89.448,3387.000,0.000,248.882,2485.728,0.000,35.830,30329.510,137956.218
ReAtlas_biomass.2422,38.97745108783369,-88.97646591332915,2422,Fayette,Illinois,17,051,17051,725.33064,21802,153509.209,196.228,15245.000,15084.000,734.400,2318.418,0.000,36.052,86084.208,273207.514
ReAtlas_biomass.2424,39.01426147100614,-87.73177990831138,2424,Crawford,Illinois,17,033,17033,445.75548,20452,124770.259,339.568,1349.000,0.000,4.082,2356.419,0.000,33.819,58253.126,187106.273
ReAtlas_biomass.996,34.85983774697514,-99.01581765958394,996,Kiowa,Oklahoma,40,075,40075,1030.62923,10227,63718.657,54.701,0.000,0.000,0.000,1272.067,0.000,16.911,0.000,65062.336
ReAtlas_biomass.2432,38.579955142423124,-89.42341801833041,2432,Clinton,Illinois,17,027,17027,503.27267,35535,150966.131,3782.212,21139.000,6868.000,779.306,3869.561,0.000,58.761,37596.182,225059.152
ReAtlas_biomass.2440,38.07414408536187,-88.14324815197821,2440,White,Illinois,17,193,17193,501.69754,15371,106138.612,262.344,14524.000,25295.000,4.082,1725.327,0.000,25.417,65351.059,213325.841
ReAtlas_biomass.1019,41.73868575974678,-80.7648563744101,1019,Ashtabula,Ohio,39,007,39007,709.47885,102728,22828.832,380.388,11568.000,6402.000,1253.477,11734.815,6440.629,169.871,14878.080,75656.091
ReAtlas_biomass.2442,38.013532465527916,-89.90041094881082,2442,Randolph,Illinois,17,157,17157,597.90313,33893,99209.967,241.644,17843.000,0.000,493.682,3876.511,0.000,56.045,52118.640,173839.489
ReAtlas_biomass.1021,41.57407562315175,-83.52494215696169,1021,Lucas,Ohio,39,095,39095,346.3534,455054,38545.450,205.864,536.000,0.000,3045.542,50917.852,12790.281,752.477,2358.720,109152.186
ReAtlas_biomass.1025,41.45361727630477,-81.67357493582105,1025,Cuyahoga,Ohio,39,035,39035,459.26747,1393978,0.000,0.000,2086.000,0.000,11561.033,154581.705,74944.000,2305.082,0.000,245477.820
ReAtlas_biomass.1026,41.591340706221594,-83.06346642672253,1026,Ottawa,Ohio,39,123,39123,265.67679,40985,49236.742,83.511,264.000,4961.000,8.165,4718.482,13912.600,67.773,8505.000,81757.273
ReAtlas_biomass.1027,41.392583723294955,-83.64979122536874,1027,Wood,Ohio,39,173,39173,620.71078,121065,177668.496,198.669,803.000,0.000,1983.794,13583.108,30066.000,200.193,25891.488,250394.748
ReAtlas_biomass.1028,41.2898510613001,-82.11332519163543,1028,Lorain,Ohio,39,093,39093,494.75266,284664,40909.112,326.744,383.000,0.000,3008.801,32056.168,25737.210,470.720,8541.288,111433.043
ReAtlas_biomass.1030,41.37738681022211,-83.13045701510688,1030,Sandusky,Ohio,39,143,39143,412.53575,61792,113225.400,264.550,3616.000,0.000,1237.147,6930.977,0.000,102.179,12918.528,138294.781
ReAtlas_biomass.1032,41.45442974738488,-82.62364837572338,1032,Erie,Ohio,39,043,39043,256.28951,79551,44622.450,77.685,1762.000,5795.000,522.259,9169.187,8247.561,131.546,4635.792,74963.480
ReAtlas_biomass.1034,41.12898783658229,-81.54010189627331,1034,Summit,Ohio,39,153,39153,420.09109,542899,1935.543,0.000,6588.000,0.000,4511.160,60097.362,13878.845,897.738,213.192,88121.839
ReAtlas_biomass.1035,41.168206720206044,-81.19786497938745,1035,Portage,Ohio,39,133,39133,507.15908,152061,17113.474,163.103,5539.000,0.000,1734.912,17105.056,32311.199,251.448,1573.992,75792.184
ReAtlas_biomass.1037,41.1329998599731,-81.92972202469556,1037,Medina,Ohio,39,103,39103,422.93671,151095,21436.562,236.796,12649.000,0.000,2277.583,17088.903,0.000,249.851,2154.600,56093.295
ReAtlas_biomass.1042,41.017422604542325,-80.80332650231057,1042,Mahoning,Ohio,39,099,39099,423.39894,257555,13732.736,258.896,6979.000,11883.000,3763.613,28964.500,44491.000,425.893,934.416,111433.053
ReAtlas_biomass.1043,40.81056453108962,-82.28148954514185,1043,Ashland,Ohio,39,005,39005,426.84736,52523,36585.247,642.797,1816.000,15312.000,522.259,5904.925,2694.503,86.852,24107.933,87672.516
ReAtlas_biomass.1045,40.77303978841332,-82.5327128323249,1045,Richland,Ohio,39,139,39139,500.33551,128852,40211.351,479.414,4687.000,0.000,1273.889,14535.887,5553.961,213.070,27946.296,94900.867
ReAtlas_biomass.1049,40.81241107065543,-81.36904593941512,1049,Stark,Ohio,39,151,39151,580.8668,378098,28265.554,615.331,8694.000,37662.000,3543.307,42308.264,49077.000,625.223,1378.944,172169.623
ReAtlas_biomass.2357,42.324449297880705,-87.9802343741809,2357,Lake,Illinois,17,097,17097,471.03976,644356,16183.613,0.000,1949.000,0.000,5568.826,68611.398,44919.480,1065.507,0.000,138297.824
ReAtlas_biomass.1059,40.44062322502389,-81.48926929696691,1059,Tuscarawas,Ohio,39,157,39157,571.48218,90914,15822.940,628.319,43381.000,24177.000,2600.849,10245.479,24299.051,150.335,5318.914,126623.886
ReAtlas_biomass.2358,42.324856271790374,-88.45317213640587,2358,McHenry,Illinois,17,111,17111,611.14297,260077,130706.491,602.772,6052.000,0.000,3070.037,28110.408,0.000,430.063,9611.784,178583.554
ReAtlas_biomass.1065,40.30399138827559,-81.90662670434222,1065,Coshocton,Ohio,39,031,39031,567.57635,36655,25884.485,610.542,43418.000,8143.000,996.430,4239.163,0.000,60.613,21257.964,104610.197
ReAtlas_biomass.1066,40.285621005136335,-82.99713020984484,1066,Delaware,Ohio,39,041,39041,456.41594,109989,72488.693,311.425,1279.000,3258.000,1045.418,12175.467,0.000,181.878,2705.270,93445.151
ReAtlas_biomass.2360,42.045732982478704,-89.31453245950854,2360,Ogle,Illinois,17,141,17141,763.26443,51032,312484.177,862.757,4957.000,0.000,252.965,5426.727,13597.000,84.387,61034.602,398699.615
ReAtlas_biomass.1073,40.01164476735473,-80.97076712778144,1073,Belmont,Ohio,39,013,39013,541.38114,70226,423.598,132.599,11552.000,45547.000,244.800,8046.157,0.000,116.126,0.000,66062.279
ReAtlas_biomass.1074,39.96155254856557,-81.9633404833784,1074,Muskingum,Ohio,39,119,39119,672.59566,84585,16370.974,349.130,12420.000,6637.000,1265.724,9635.657,0.000,139.870,5265.842,52084.197
ReAtlas_biomass.1075,39.96986226209489,-83.01185785236495,1075,Franklin,Ohio,39,049,39049,543.32096,1068978,35491.120,86.967,47.000,0.000,11242.750,118423.577,24606.000,1767.662,4055.184,195720.261
ReAtlas_biomass.1076,39.90447380060661,-83.42791359560468,1076,Madison,Ohio,39,097,39097,466.52676,40213,145709.832,325.172,69.000,0.000,289.706,4542.244,0.000,66.496,23901.091,174903.541
ReAtlas_biomass.1079,39.7478800929629,-82.60480027970374,1079,Fairfield,Ohio,39,045,39045,508.8945,122759,84177.885,377.063,1738.000,7153.000,32.659,13770.629,14163.000,202.994,29676.326,151291.556
ReAtlas_biomass.2362,41.81272741700512,-87.89592143739421,2362,Cook,Illinois,17,031,17031,957.74671,5376741,9266.897,0.000,1849.000,0.000,32009.954,573031.899,294232.900,8890.979,10.886,919292.515
ReAtlas_biomass.1084,39.70060733998388,-83.88092537005562,1084,Greene,Ohio,39,057,39057,417.36324,147886,97808.510,415.699,8145.000,0.000,505.930,16370.556,1053.520,244.544,5388.768,129932.526
ReAtlas_biomass.1085,39.640660962880524,-83.0000390682365,1085,Pickaway,Ohio,39,129,39129,506.61738,52727,142827.540,453.764,18599.000,0.000,4.082,5927.508,0.000,87.189,24456.298,192355.380
ReAtlas_biomass.2363,41.93717968904858,-88.4207925617304,2363,Kane,Illinois,17,089,17089,524.21797,404119,135678.990,512.837,1969.000,0.000,6339.967,43246.230,33505.900,668.251,929.880,222851.055
ReAtlas_biomass.1094,39.34246573458833,-83.06809198204303,1094,Ross,Ohio,39,141,39141,692.96198,73345,83672.112,184.370,84508.000,6770.000,4.082,8209.861,5358.331,121.283,64300.522,253128.561
ReAtlas_biomass.1096,39.19911260987679,-83.60850193225497,1096,Highland,Ohio,39,071,39071,557.84048,40875,80851.813,270.788,5468.000,0.000,12.247,4615.525,0.000,67.591,132525.590,223811.555
ReAtlas_biomass.1097,39.16699811839206,-84.53886897429635,1097,Hamilton,Ohio,39,061,39061,412.63781,845303,4035.139,19.421,554.000,0.000,10528.762,93572.617,44450.000,1397.793,17.690,154575.422
ReAtlas_biomass.1101,39.040053699641206,-82.03370666947424,1101,Meigs,Ohio,39,105,39105,432.37745,23072,2421.007,13.378,15859.000,34603.000,734.400,2554.004,0.000,38.152,2665.354,58888.295
ReAtlas_biomass.1102,39.07321299614922,-83.086295624336,1102,Pike,Ohio,39,131,39131,443.94337,27695,10513.216,11.225,23682.000,41877.000,1033.171,3065.757,5550.321,45.796,27402.430,113180.917
ReAtlas_biomass.1139,42.61521898935694,-73.97178531380973,1139,Albany,,36,001,36001,533.38553,294565,545.234,30.549,3373.000,4930.000,2244.924,31495.091,18992.000,487.093,2431.296,64529.187
ReAtlas_biomass.1142,42.470557126769464,-75.5926964485624,1142,Chenango,,36,017,36017,898.69952,51401,3121.734,261.044,37471.000,27828.000,1000.512,5677.390,0.000,84.997,16252.488,91697.165
ReAtlas_biomass.2377,41.14697666569373,-87.88979575946504,2377,Kankakee,Illinois,17,091,17091,681.49351,103833,287993.915,315.853,1.000,0.000,1481.947,11041.569,5162.273,171.698,13156.214,319324.470
ReAtlas_biomass.1144,42.290157015414906,-77.3592921464413,1144,Steuben,,36,101,36101,1404.09404,98726,13115.569,323.305,22350.000,8322.000,1261.642,10828.191,2853.000,163.253,23396.688,82613.649
ReAtlas_biomass.1145,42.28479905014418,-79.41228803810333,1145,Chautauqua,,36,013,36013,1085.01429,139750,6647.218,298.288,51037.000,34660.000,1375.949,15305.285,8757.161,231.091,7842.744,126154.736
ReAtlas_biomass.1152,42.20739068545192,-75.74615496527696,1152,Broome,,36,007,36007,715.47178,200536,546.833,107.719,23022.000,4196.000,297.871,21532.226,9303.161,331.606,5520.312,64857.728
ReAtlas_biomass.1153,42.204595128872405,-76.32290171082406,1153,Tioga,,36,107,36107,522.88269,51784,1940.272,127.561,25049.000,69488.000,1261.642,5627.561,0.000,85.630,4585.896,108165.562
ReAtlas_biomass.2381,40.865880293916376,-88.58446945233021,2381,Livingston,Illinois,17,105,17105,1045.81665,39678,554660.471,2169.821,0.000,0.000,762.977,4219.346,23334.000,65.612,55297.469,640509.696
ReAtlas_biomass.1161,41.12345088798905,-73.73392162146644,1161,Westchester,,36,119,36119,475.23377,923459,0.000,0.361,3724.000,0.000,5176.303,98827.647,21133.161,1527.032,0.000,130388.504
ReAtlas_biomass.1162,40.85146256671151,-73.8495598992265,1162,Bronx,,36,005,36005,43.19992,1332650,0.000,0.000,0.000,0.000,2841.566,142487.848,0.000,2203.670,0.000,147533.084
ReAtlas_biomass.1163,40.78298565009693,-73.9772858824258,1163,,,36,061,36061,27.90207,1537195,0.000,0.000,0.000,0.000,6609.262,164539.499,0.000,2541.906,0.000,173690.667
ReAtlas_biomass.1164,40.95389025671083,-72.68082602748385,1164,Suffolk,,36,103,36103,922.34895,1419369,819.258,2.643,6276.000,0.000,14023.368,152032.243,80681.000,2347.069,99.792,256281.372
ReAtlas_biomass.1165,40.57239408495364,-74.15407917475443,1165,Richmond,,36,085,36085,58.04458,443728,0.000,0.000,336.000,0.000,579.413,47806.821,200151.320,733.749,0.000,249607.303
ReAtlas_biomass.1171,40.58147242144227,-119.59580713929188,1171,Washoe,Nevada,32,031,32031,6550.5002,339486,0.000,4.257,0.000,0.000,6046.178,39860.757,12954.215,561.374,0.000,59426.781
ReAtlas_biomass.2386,40.74449573365855,-89.71934246053965,2386,Peoria,Illinois,17,143,17143,630.88909,183433,215911.120,485.288,855.000,0.000,1029.089,19869.329,24188.400,303.325,21408.106,284049.657
ReAtlas_biomass.2394,40.244015868618035,-89.97933635784389,2394,Mason,Illinois,17,125,17125,563.36774,16038,206486.454,208.059,4703.000,17043.000,4.082,1705.476,0.000,26.520,55575.072,285751.663
ReAtlas_biomass.2397,40.13218418294681,-90.55738874337726,2397,Schuyler,Illinois,17,169,17169,441.38766,7189,122711.238,778.429,28428.000,0.000,0.000,764.476,0.000,11.888,87243.610,239937.641
ReAtlas_biomass.1185,35.931462700581086,-114.98340849692482,1185,Clark,Nevada,32,003,32003,8090.41524,1375765,0.000,0.000,0.000,0.000,8674.704,157579.523,48819.000,2274.965,0.000,217348.192
ReAtlas_biomass.2311,39.66859070273132,-86.82893879585225,2311,Putnam,Indiana,18,133,18133,482.52639,36019,129323.403,685.866,14900.000,12973.000,0.000,4304.784,0.000,59.561,23694.250,185940.864
ReAtlas_biomass.1187,36.47000192360259,-106.58574570998317,1187,,,35,039,35039,5896.08901,41190,0.000,27.687,18152.000,82312.000,24.494,4303.394,0.000,68.112,0.000,104887.688
ReAtlas_biomass.2317,39.48614621032849,-86.4691552742243,2317,Morgan,Indiana,18,109,18109,409.4032,66689,63808.166,185.921,27425.000,21235.000,265.212,7906.468,0.000,110.277,5998.406,126934.451
ReAtlas_biomass.1200,35.04555546330991,-106.67329769738811,1200,Bernalillo,,35,001,35001,1168.47626,556678,0.000,1211.443,377.000,0.000,6601.097,57023.769,28869.000,920.523,0.000,95002.832
ReAtlas_biomass.2328,39.080661872720086,-87.45008981105238,2328,Sullivan,Indiana,18,153,18153,454.02827,21751,98320.966,242.039,9517.000,0.000,244.800,2671.475,772.657,35.967,13270.522,125075.425
ReAtlas_biomass.2329,39.001440187630344,-85.6204007024798,2329,Jennings,Indiana,18,079,18079,378.35199,27554,55419.693,200.721,13784.000,0.000,244.800,3154.205,1005.289,45.563,14424.480,88278.750
ReAtlas_biomass.2331,38.89826652098393,-86.05731876120402,2331,Jackson,Indiana,18,071,18071,513.75353,41335,91707.673,822.415,17897.000,14352.000,1249.394,5004.105,11750.800,68.352,25202.016,168053.755
ReAtlas_biomass.2335,38.75026033820266,-85.44324662443148,2335,Jefferson,Indiana,18,077,18077,362.93981,31705,33820.690,139.645,8131.000,7192.000,996.430,3810.945,0.000,52.427,2329.690,56472.827
ReAtlas_biomass.2336,38.66159723076433,-87.42490751923285,2336,Knox,Indiana,18,083,18083,524.06073,39256,169659.844,785.165,9213.000,0.000,742.565,4947.675,481.660,64.914,9873.965,195768.789
ReAtlas_biomass.1213,32.69786875097003,-105.61855549416103,1213,Otero,,35,035,35035,6627.29751,62298,0.000,25.756,21698.000,82312.000,8.165,6734.508,0.000,103.016,0.000,110881.445
ReAtlas_biomass.2338,38.69744044149444,-87.09230588778354,2338,Daviess,Indiana,18,027,18027,436.85664,29820,100869.215,2502.412,33608.000,10629.000,795.636,3595.162,1107.699,49.310,16879.363,170035.797
ReAtlas_biomass.2339,38.69664746326277,-85.72953465072442,2339,Scott,Indiana,18,143,18143,192.7303,22960,19582.090,465.620,11677.000,18063.000,742.565,2628.313,0.000,37.967,11779.085,64975.640
ReAtlas_biomass.2340,38.600894530917174,-86.07941797473552,2340,Washington,Indiana,18,175,18175,516.52726,27223,35290.347,573.637,29052.000,14831.000,48.989,3207.094,637.875,45.016,58325.249,142011.207
ReAtlas_biomass.2342,38.43756113181583,-85.70565486410291,2342,Clark,Indiana,18,019,18019,375.95918,96472,25306.592,121.347,8202.000,0.000,2808.907,11588.175,10339.400,159.526,6575.386,65101.333
ReAtlas_biomass.1219,41.01160297530593,-74.30543301765687,1219,Passaic,,34,031,34031,197.13544,489049,0.000,0.000,17.000,0.000,2915.050,51800.173,0.000,808.691,0.000,55540.914
ReAtlas_biomass.1220,40.948043225473256,-74.08377141036917,1220,Bergen,,34,003,34003,246.69266,884118,0.000,0.000,98.000,0.000,5927.933,93534.185,149684.000,1461.978,0.000,250706.096
ReAtlas_biomass.2343,38.39168917810289,-87.26799877396815,2343,Pike,Indiana,18,125,18125,341.10746,12837,40155.170,133.397,10876.000,29098.000,0.000,1651.057,2907.000,21.227,18126.763,102968.614
ReAtlas_biomass.1222,40.86817762179684,-74.5793694200465,1222,Morris,,34,027,34027,481.39561,470212,460.596,1.196,2330.000,918.000,4070.549,50999.081,0.000,777.543,9.979,59566.944
ReAtlas_biomass.2344,38.349940987280576,-87.65263295173452,2344,Gibson,Indiana,18,051,18051,499.03666,32500,138335.905,741.322,6519.000,0.000,0.000,4446.631,624.821,53.742,8006.947,158728.368
ReAtlas_biomass.1224,40.79457460867959,-74.24740539412753,1224,Essex,,34,013,34013,128.01936,793633,0.000,0.000,0.000,0.000,7037.626,83472.500,0.000,1312.352,0.000,91822.478
ReAtlas_biomass.1225,40.73343440835328,-74.0755925374977,1225,Hudson,,34,017,34017,51.32332,608975,0.000,0.000,0.000,0.000,2281.666,64595.275,90683.000,1007.001,0.000,158566.942
ReAtlas_biomass.1261,42.512908832479766,-96.82551212252082,1261,Dixon,Nebraska,31,051,31051,482.72021,6339,116349.070,2313.421,555.000,0.000,244.800,696.185,0.000,10.482,191921.789,312090.747
ReAtlas_biomass.1278,41.865251300796274,-96.31068916679482,1278,Burt,Nebraska,31,021,31021,497.20846,7791,174372.688,1751.117,527.000,0.000,0.000,855.652,0.000,12.883,89028.979,266548.319
ReAtlas_biomass.1284,41.55985859325486,-97.08031439736703,1284,Colfax,Nebraska,31,037,31037,418.58549,10441,125317.095,2744.307,1442.000,0.000,0.000,1146.690,0.000,17.265,27956.275,158623.632
ReAtlas_biomass.1286,41.538443654943464,-97.54271421956128,1286,Platte,Nebraska,31,141,31141,689.08111,31662,265926.695,4701.921,1456.000,0.000,16.330,3568.080,0.000,52.356,37247.818,312969.199
ReAtlas_biomass.1287,41.56827254906293,-96.6182390914276,1287,Dodge,Nebraska,31,053,31053,543.92618,36160,208018.355,2255.538,379.000,17072.000,261.130,3971.295,4172.176,59.794,12029.472,248218.760
ReAtlas_biomass.1293,41.53793980939136,-96.18288825965652,1293,Washington,Nebraska,31,177,31177,393.70101,18780,115997.005,1446.633,27.000,0.000,8.165,2062.526,0.000,31.055,27101.693,146674.076
ReAtlas_biomass.1295,41.250695247567606,-97.13769725066413,1295,Butler,Nebraska,31,023,31023,584.41027,8767,177017.587,986.100,5527.000,5389.000,0.000,962.841,1041.001,14.497,75279.456,266217.483
ReAtlas_biomass.1296,41.23463706849246,-96.61092365958245,1296,Saunders,Nebraska,31,155,31155,758.72216,19830,262210.198,1281.337,4129.000,0.000,244.800,2177.843,0.000,32.791,86078.765,356154.734
ReAtlas_biomass.1298,41.221678277177034,-97.59888596864255,1298,Polk,Nebraska,31,143,31143,440.87442,5639,181780.709,1311.829,411.000,0.000,0.000,619.307,0.000,9.325,1959.552,186091.722
ReAtlas_biomass.1300,41.13423717657537,-97.94411434043627,1300,Merrick,Nebraska,31,121,31121,494.4797,8204,183609.264,695.864,4143.000,1533.000,0.000,901.010,0.000,13.566,2812.320,193708.023
ReAtlas_biomass.1301,41.04763335240887,-100.74968636345454,1301,Lincoln,Nebraska,31,111,31111,2575.10446,34632,222067.009,810.651,5796.000,0.000,24.494,3894.262,770.158,57.267,0.000,233419.840
ReAtlas_biomass.1302,41.29278678222866,-96.17171635374177,1302,Douglas,Nebraska,31,055,31055,339.68836,463585,38582.740,159.095,29.000,0.000,4074.631,51004.301,11333.161,766.584,5486.746,111436.258
ReAtlas_biomass.1307,41.093157075745665,-96.09092102680916,1307,Sarpy,Nebraska,31,153,31153,247.24863,122595,35002.935,237.452,90.000,0.000,771.142,13464.075,4412.218,202.723,5236.358,59416.903
ReAtlas_biomass.1308,40.93632574952157,-98.0550736882874,1308,Hamilton,Nebraska,31,081,31081,546.85107,9403,344264.137,1010.858,0.000,0.000,244.800,1032.691,0.000,15.549,2367.792,348935.827
ReAtlas_biomass.1309,40.92516766966069,-96.13736777349959,1309,Cass,Nebraska,31,025,31025,566.22865,24334,121137.156,575.774,746.000,0.000,4.082,2672.497,1469.052,40.239,17586.979,144231.779
ReAtlas_biomass.1310,40.859862473555324,-99.8216303655305,1310,Dawson,Nebraska,31,047,31047,1019.2965,24365,242038.605,1482.901,0.000,0.000,4.082,2675.902,0.000,40.290,7293.888,253535.668
ReAtlas_biomass.1311,40.85019107337537,-99.0751093396741,1311,Buffalo,Nebraska,31,019,31019,975.27123,42259,226741.726,921.195,14.000,0.000,252.965,4822.682,824.000,69.879,31039.848,264686.295
ReAtlas_biomass.1313,40.87235489016823,-97.13989049059614,1313,Seward,Nebraska,31,159,31159,575.83106,16496,188764.730,1301.777,0.000,0.000,257.047,1811.684,472.812,27.278,57071.952,249707.279
ReAtlas_biomass.1315,40.78474979574477,-96.68966882658174,1315,Lancaster,Nebraska,31,109,31109,846.41714,250291,135074.253,1078.422,35.000,1361.000,1812.478,27579.150,6336.901,413.881,152360.611,326051.697
ReAtlas_biomass.1317,40.65420443373583,-96.08814578151919,1317,Otoe,Nebraska,31,131,31131,619.13021,15396,66665.147,1479.594,298.000,0.000,0.000,1690.876,413.574,25.459,100802.621,171375.270
ReAtlas_biomass.1325,40.52414014402621,-97.14110146034068,1325,Saline,Nebraska,31,151,31151,576.12246,13843,164083.881,1252.643,1265.000,0.000,4.082,1520.316,0.000,22.891,43178.184,211326.997
ReAtlas_biomass.1326,40.52026270845116,-98.95218021256579,1326,Kearney,Nebraska,31,099,31099,516.13235,6882,263722.815,500.105,0.000,0.000,4.082,755.820,0.000,11.380,4808.160,269802.363
ReAtlas_biomass.1327,40.51855267808496,-99.41240463420667,1327,Phelps,Nebraska,31,137,31137,540.60281,9747,305543.815,722.957,0.000,0.000,0.000,1070.471,1476.649,16.118,3284.064,312114.074
ReAtlas_biomass.1342,40.13166690869794,-95.66016212521333,1342,Richardson,Nebraska,31,147,31147,555.93472,9531,87197.111,833.586,970.000,0.000,4.082,1046.748,0.000,15.760,162702.691,252769.979
ReAtlas_biomass.1343,48.772240113105525,-97.52231915898165,1343,Pembina,,38,067,38067,1121.74274,8585,176869.736,110.106,7707.000,0.000,4.082,848.085,0.000,14.196,136111.298,321664.502
ReAtlas_biomass.1351,48.328611815688426,-101.60815741713702,1351,Ward,,38,101,38101,2056.49034,58795,233286.803,77.985,2351.000,0.000,534.506,6080.510,0.000,97.223,152961.178,395389.204
ReAtlas_biomass.1352,48.296672002604254,-103.44213597447617,1352,Williams,,38,105,38105,2147.97249,19761,138212.847,40.504,0.000,0.000,265.212,2042.906,0.000,32.677,0.000,140594.145
ReAtlas_biomass.1353,48.24099567085022,-100.6320892465236,1353,McHenry,,38,049,38049,1911.80555,5987,111404.210,69.631,103.000,0.000,0.000,682.217,0.000,9.900,477963.310,590232.268
ReAtlas_biomass.1354,48.150649351858824,-102.38085928069677,1354,Mountrail,,38,061,38061,1941.22935,6631,124454.599,28.961,0.000,0.000,0.000,655.055,0.000,10.965,192533.242,317682.823
ReAtlas_biomass.1360,47.93460764964342,-97.39702254980546,1360,,,38,035,38035,1439.83507,66109,237836.097,87.429,116.000,0.000,273.377,6803.036,0.000,109.318,387109.498,632334.756
ReAtlas_biomass.1361,47.73985943318362,-103.30425312324172,1361,McKenzie,,38,053,38053,2860.8951,5737,77881.847,76.258,0.000,0.000,4.082,657.520,0.000,9.487,0.000,78629.194
ReAtlas_biomass.1362,47.50622126008322,-101.49131447613456,1362,McLean,,38,055,38055,2327.83453,9311,182761.194,32.438,0.000,0.000,4.082,1101.364,0.000,15.397,283815.706,467730.181
ReAtlas_biomass.1366,47.40307826888431,-102.62596302209249,1366,Dunn,,38,025,38025,2082.24305,3600,49611.057,102.130,760.000,0.000,0.000,446.412,0.000,5.953,0.000,50925.552
ReAtlas_biomass.1369,47.45534122211446,-97.15302605898512,1369,Traill,,38,097,38097,862.53673,8477,227840.729,16.232,305.000,0.000,244.800,837.416,0.000,14.018,34206.430,263464.625
ReAtlas_biomass.1374,46.98133831825802,-100.52295363495625,1374,Burleigh,,38,015,38015,1668.07785,69416,44071.654,38.828,0.000,0.000,1265.724,7311.284,0.000,114.786,368036.525,420838.802
ReAtlas_biomass.1376,46.98000403452342,-98.96343037260925,1376,Stutsman,,38,093,38093,2298.26285,21908,238192.959,82.763,0.000,0.000,0.000,2255.001,0.000,36.227,741706.762,982273.713
ReAtlas_biomass.2285,40.736425059690774,-86.84077353734963,2285,White,Indiana,18,181,18181,508.87774,25267,263784.330,1581.847,2516.000,7795.000,0.000,3164.744,5481.161,41.782,9371.376,293736.240
ReAtlas_biomass.1379,46.935584263830336,-97.2324366862099,1379,Cass,,38,017,38017,1767.91222,123138,514345.532,205.156,1511.000,0.000,2792.578,12618.308,4613.000,203.621,134564.069,670853.264
ReAtlas_biomass.1380,46.82158911211971,-102.6659237634716,1380,Stark,,38,089,38089,1340.46861,22636,57897.123,118.579,1182.000,0.000,518.177,2326.918,0.000,37.431,0.000,62080.228
ReAtlas_biomass.1396,36.41441567320105,-81.4935448551237,1396,Ashe,,37,009,37009,427.00402,24384,0.000,17.147,26164.000,24242.000,257.047,2639.961,1073.269,40.321,0.000,54433.745
ReAtlas_biomass.2293,40.38883340146114,-86.89547703693736,2293,Tippecanoe,Indiana,18,157,18157,502.92411,148955,204948.284,1533.166,1792.000,0.000,742.565,17323.752,0.000,246.312,6553.613,233139.692
ReAtlas_biomass.1398,36.39966934636776,-80.70865251328814,1398,Surry,,37,171,37171,537.84077,71219,7780.094,3097.298,31697.000,88438.000,1771.654,7543.439,6778.000,117.768,713.059,147936.312
ReAtlas_biomass.1399,36.42629982777514,-76.7025288418395,1399,Gates,,37,073,37073,344.02028,10516,17210.319,1412.303,27496.000,66571.000,0.000,1060.226,0.000,17.389,1807.142,115574.379
ReAtlas_biomass.1400,36.35767256980504,-76.22702500367791,1400,Camden,,37,029,37029,241.59865,6885,42060.550,106.353,13844.000,0.000,248.882,784.928,0.000,11.385,100.699,57156.796
ReAtlas_biomass.2248,37.23839916096829,-97.47870912160488,2248,Sumner,Kansas,20,191,20191,1184.8949,25946,227915.328,201.870,92.000,0.000,8.165,3287.361,0.000,42.904,29760.696,261308.324
ReAtlas_biomass.1407,36.39062886303844,-79.7735166343079,1407,Rockingham,,37,157,37157,573.07344,91928,4013.718,292.367,47622.000,28068.000,530.424,9540.546,5821.000,152.012,2732.486,98772.552
ReAtlas_biomass.1408,36.28226946154862,-78.63111200142703,1408,Granville,,37,077,37077,535.89017,48498,3253.267,136.854,34575.000,0.000,1233.065,5161.921,2910.000,80.196,16585.430,63935.734
ReAtlas_biomass.1411,36.258387443897774,-77.61906160733778,1411,Halifax,,37,083,37083,731.78574,57370,24597.920,2431.169,65288.000,149226.000,265.212,6601.079,2099.483,94.867,41139.706,291743.437
ReAtlas_biomass.1412,36.31724248167185,-76.27590842618906,1412,Pasquotank,,37,139,37139,229.04876,34897,63428.413,42.239,21149.000,0.000,252.965,3609.105,2187.269,57.706,329.314,91056.010
ReAtlas_biomass.1413,36.21672404115539,-81.20812458675863,1413,Wilkes,,37,193,37193,759.68552,65632,1080.747,8065.731,49515.000,123354.000,2269.418,6798.596,6411.000,108.529,1680.588,199283.608
ReAtlas_biomass.1415,36.22662373270679,-76.39156109871243,1415,Perquimans,,37,143,37143,249.73069,11368,44889.128,785.697,15256.000,0.000,248.882,1236.905,773.267,18.798,141.523,63350.199
ReAtlas_biomass.1419,36.042101600749504,-78.27729019564123,1419,Franklin,,37,069,37069,494.48334,47260,6073.914,1175.115,37193.000,60982.000,1759.406,5037.106,1529.493,78.149,23177.146,137005.329
ReAtlas_biomass.1420,36.11751186286211,-80.27560169015001,1420,Forsyth,,37,067,37067,413.21265,306067,3121.289,9.233,15713.000,0.000,4245.948,31130.097,14855.000,506.112,353.808,69934.487
ReAtlas_biomass.1421,36.078899686140225,-79.79086263645397,1421,Guilford,,37,081,37081,655.86619,421048,8799.891,539.650,26832.000,0.000,17754.034,42722.513,26296.000,696.245,713.059,124353.392
ReAtlas_biomass.1422,36.046756544149446,-79.39042288358206,1422,Alamance,,37,001,37001,435.75475,130800,3246.363,723.241,23437.000,116434.000,546.754,13459.631,8695.000,216.291,1562.198,168320.478
ReAtlas_biomass.1423,36.05229022728342,-79.10839950375234,1423,Orange,,37,135,37135,399.99882,118227,2078.996,282.040,18591.000,44111.000,261.130,12192.018,5845.161,195.500,1540.426,85097.271
ReAtlas_biomass.1424,36.029711689910364,-77.00590130821229,1424,Bertie,,37,015,37015,707.96123,19773,29575.302,3104.828,68086.000,53310.000,489.600,2084.299,9599.000,32.697,813.758,167095.484
ReAtlas_biomass.2299,40.159695793787094,-87.26393849780735,2299,Fountain,Indiana,18,045,18045,397.94126,17954,187757.130,444.165,5933.000,0.000,493.682,2146.039,1009.601,29.689,11833.517,209646.823
ReAtlas_biomass.1426,35.965580828040984,-77.97817162969974,1426,Nash,,37,127,37127,541.96084,87420,14530.029,3831.614,38747.000,0.000,1759.406,9539.948,5971.622,144.558,12067.574,86591.751
ReAtlas_biomass.1428,35.91598301009161,-77.58630286956722,1428,Edgecombe,,37,065,37065,506.42231,55606,26127.556,4874.434,24616.000,0.000,493.682,5787.772,6337.469,91.950,16884.806,85213.669
ReAtlas_biomass.1429,35.939360985355734,-81.57051345702851,1429,Caldwell,,37,027,37027,475.28992,77415,798.265,328.936,25265.000,15780.000,3159.850,7986.561,6737.000,128.013,1002.456,61186.081
ReAtlas_biomass.2301,40.07265140149245,-86.05118674839116,2301,Hamilton,Indiana,18,057,18057,402.46267,182740,109773.420,408.847,515.000,0.000,2273.501,21463.582,0.000,302.179,544.320,135280.849
ReAtlas_biomass.1431,35.798336802430654,-78.62638499388817,1431,Wake,,37,183,37183,856.89701,627846,4250.307,49.933,59811.000,63194.000,7940.304,63935.063,39701.000,1038.206,1540.426,241460.239
ReAtlas_biomass.1432,35.86714739609326,-77.08581075980649,1432,Martin,,37,117,37117,461.92253,25593,18487.042,957.962,42705.000,4281.000,248.882,2852.633,0.000,42.321,1826.194,71401.034
ReAtlas_biomass.1435,35.772971345157764,-80.90363903519633,1435,Iredell,,37,097,37097,597.15815,122660,10361.644,2028.404,20422.000,38969.000,2560.025,12729.734,7084.399,202.831,11408.947,105766.984
ReAtlas_biomass.2304,39.87788154847554,-87.44392042304713,2304,Vermillion,Indiana,18,165,18165,259.93676,16788,48102.023,407.293,3137.000,0.000,4.082,2375.682,2352.000,27.761,1349.914,57755.755
ReAtlas_biomass.1437,35.76587349346399,-80.26494027045078,1437,Davidson,,37,057,37057,567.21442,147246,5718.019,593.986,31896.000,30373.000,4723.445,14845.381,9303.161,243.486,4632.163,102328.641
ReAtlas_biomass.1439,35.79677201821061,-76.20850618005,1439,Tyrrell,,37,177,37177,398.94241,4149,56158.522,850.821,11682.000,7642.000,0.000,418.303,0.000,6.861,2261.650,79020.158
ReAtlas_biomass.1440,35.84043475792643,-76.60067098257707,1440,Washington,,37,187,37187,377.49216,13723,56210.805,2121.675,23834.000,245160.000,734.400,1383.557,888.684,22.692,2378.678,332734.490
ReAtlas_biomass.1441,35.739242082514174,-82.06014817987003,1441,McDowell,,37,111,37111,447.01133,42151,0.000,232.517,22138.000,29544.000,2032.783,4340.455,1801.485,69.701,218.182,60377.123
ReAtlas_biomass.1442,35.71315202243159,-79.80392671242521,1442,Randolph,,37,151,37151,789.76096,130454,6880.799,6657.145,51314.000,72569.000,3139.438,13424.747,6237.225,215.719,13461.034,173899.109
ReAtlas_biomass.1443,35.696695181410895,-79.23167701435014,1443,Chatham,,37,037,37037,709.36165,49329,1285.865,4042.683,55633.000,90484.000,526.342,5154.923,1369.599,81.570,4953.312,163531.294
ReAtlas_biomass.1453,35.49964405230887,-77.6512628388434,1453,Greene,,37,079,37079,265.70351,18974,21406.528,12768.018,67405.000,0.000,0.000,2003.744,360.858,31.375,4022.525,107998.047
ReAtlas_biomass.2307,39.779271979663484,-87.22235781161115,2307,Parke,Indiana,18,121,18121,450.09727,17241,93887.683,538.104,34884.000,25271.000,489.600,2064.419,0.000,28.510,10951.718,168115.034
ReAtlas_biomass.1455,35.39641248901304,-81.9860805849037,1455,Rutherford,,37,161,37161,565.82895,62899,640.057,184.707,56883.000,100512.000,1265.724,6523.054,6357.000,104.010,11947.824,184417.377
ReAtlas_biomass.1456,35.37242207973023,-78.05312864624665,1456,Wayne,,37,191,37191,556.4819,113329,53584.931,19835.490,55944.000,197687.000,289.706,11607.420,7330.973,187.401,3652.387,350119.308
ReAtlas_biomass.1457,35.374091250761204,-81.54433737781304,1457,Cleveland,,37,045,37045,468.47829,96287,5377.692,792.348,17789.000,5424.000,542.671,9889.241,4999.116,159.220,61165.238,106138.526
ReAtlas_biomass.1458,35.38833158382375,-78.87906925351606,1458,Harnett,,37,085,37085,601.725,91025,13397.588,4042.100,27831.000,11304.000,265.212,9540.285,5539.000,150.519,6553.613,78623.317
ReAtlas_biomass.2309,39.7802457654432,-86.13318135966239,2309,Marion,Indiana,18,097,18097,403.0441,860454,11795.158,0.932,1924.000,0.000,10467.526,98953.149,134860.800,1422.847,5.443,259429.855
ReAtlas_biomass.1461,35.28077821048797,-79.433730564451,1461,Moore,,37,125,37125,705.58652,74769,1971.791,4511.031,47575.000,0.000,1008.677,8082.911,5326.894,123.638,2144.621,70744.563
ReAtlas_biomass.1462,35.25868166961684,-80.80493322654553,1462,Mecklenburg,,37,119,37119,546.15714,695454,1289.307,6.815,11883.000,0.000,9756.720,70297.420,9686.529,1150.003,533.434,104603.228
ReAtlas_biomass.1463,35.32493599464922,-79.89914762197165,1463,Montgomery,,37,123,37123,501.63687,26822,993.834,2852.009,57959.000,236113.000,514.094,2976.541,9485.161,44.353,4463.424,315401.416
ReAtlas_biomass.1464,35.34715207645072,-80.54157871315823,1464,Cabarrus,,37,025,37025,364.18089,131063,5016.910,600.291,9556.000,0.000,1253.477,13395.367,16548.000,216.726,5062.176,51648.947
ReAtlas_biomass.1465,35.324010880978726,-80.2788686977762,1465,Stanly,,37,167,37167,404.48989,58100,16207.636,1681.356,8756.000,99245.000,1073.995,5857.658,5706.361,96.074,21135.946,159760.025
ReAtlas_biomass.2310,39.76259133886598,-86.51081646054394,2310,Hendricks,Indiana,18,063,18063,408.96016,104093,114871.026,466.136,6262.000,0.000,1008.677,12006.678,12644.936,172.128,2574.634,150006.215
ReAtlas_biomass.1468,35.21742362324639,-77.61446483251126,1468,Lenoir,,37,107,37107,402.80953,59648,37704.798,9441.877,16851.000,20272.000,273.377,6286.067,5117.161,98.634,3821.126,99866.040
ReAtlas_biomass.1471,35.111982176547166,-77.06743356282311,1471,Craven,,37,049,37049,727.18794,91436,24514.317,2572.606,39907.000,122436.000,1000.512,9490.942,7712.000,151.199,2781.475,210566.051
ReAtlas_biomass.1473,35.14810141283509,-76.72777814069804,1473,Pamlico,,37,137,37137,347.0377,12934,29311.444,94.536,30687.000,0.000,0.000,1394.789,327.278,21.388,152.410,61988.845
ReAtlas_biomass.1475,34.934906348959686,-78.39367390667718,1475,Sampson,,37,163,37163,947.38065,60161,50826.859,61285.533,52254.000,43338.000,762.977,6156.228,7483.161,99.482,4468.867,226675.107
ReAtlas_biomass.2227,38.04374481258042,-97.42797510797232,2227,Harvey,Kansas,20,079,20079,540.54007,32869,133247.681,343.195,101.000,0.000,1535.018,4025.282,5683.911,54.352,17118.864,162109.302
ReAtlas_biomass.2228,37.953769034847795,-98.08707448017992,2228,Reno,Kansas,20,155,20155,1271.40805,64790,170123.857,487.712,12.000,0.000,750.730,7937.086,7708.879,107.137,346824.374,533951.774
ReAtlas_biomass.1478,35.051005218606534,-78.80466045027967,1478,Cumberland,,37,051,37051,658.78886,302963,13840.400,3845.412,41551.000,0.000,318.283,30907.931,7810.000,500.980,6145.373,104919.379
ReAtlas_biomass.1486,34.83683719513869,-79.5099328229633,1486,Scotland,,37,165,37165,320.65403,35998,6191.515,4720.590,14864.000,51174.000,257.047,3810.888,1932.259,59.526,3211.488,86221.313
ReAtlas_biomass.1487,34.6269197912411,-79.13474383906706,1487,Robeson,,37,155,37155,951.0047,123339,67287.813,13066.465,24688.000,0.000,522.259,12888.971,2472.378,203.953,9188.122,130317.962
ReAtlas_biomass.1488,34.612214191052026,-78.54010362357423,1488,Bladen,,37,017,37017,887.16229,32278,28175.884,24573.644,59508.000,45795.000,269.294,3617.397,1558.859,53.375,7647.696,171199.149
ReAtlas_biomass.2231,37.781980660085935,-96.83942266742065,2231,Butler,Kansas,20,015,20015,1446.35663,59482,95877.392,837.342,141.000,0.000,248.882,7301.705,0.000,98.359,9915.696,114420.375
ReAtlas_biomass.1490,34.83007090391598,-76.60425334309474,1490,Carteret,,37,031,37031,505.49801,59383,41829.781,0.000,16084.000,0.000,526.342,6259.350,1959.804,98.196,0.000,66757.473
ReAtlas_biomass.1491,34.71291009559482,-77.40032215283904,1491,Onslow,,37,133,37133,761.88922,150355,18635.732,5722.183,29994.000,0.000,505.930,15612.732,7561.000,248.627,106.142,78386.346
ReAtlas_biomass.1492,34.21471598934269,-78.61817970294206,1492,Columbus,,37,047,37047,953.60267,54749,37300.603,7905.955,107459.000,513922.000,1261.642,5792.149,5272.487,90.533,3219.653,682224.022
ReAtlas_biomass.1493,34.51367249114969,-77.89608057729467,1493,Pender,,37,141,37141,870.46335,41082,17692.255,8068.847,69852.000,0.000,505.930,4323.458,860.932,67.933,982.498,102353.853
ReAtlas_biomass.1495,34.106337278311564,-78.29196402178678,1495,Brunswick,,37,019,37019,864.15433,73143,7298.124,2198.077,36035.000,0.000,1486.030,7737.417,2605.754,120.949,65.318,57546.669
ReAtlas_biomass.1496,48.30384853933599,-113.96448403516573,1496,Flathead,Montana,30,029,30029,5256.46043,74471,17502.414,83.455,108308.000,1937052.000,1359.619,8338.348,1890.000,123.145,0.000,2074656.981
ReAtlas_biomass.1497,48.447959898711616,-115.33883097188016,1497,Lincoln,Montana,30,053,30053,3675.06846,18837,0.000,2.668,103178.000,0.000,269.294,2856.200,0.000,31.149,0.000,106337.311
ReAtlas_biomass.1498,48.36239108932273,-108.90219316659784,1498,Blaine,Montana,30,005,30005,4238.91982,7009,54813.557,73.643,1310.000,0.000,0.000,997.314,0.000,11.590,0.000,57206.104
ReAtlas_biomass.1499,48.56840936419871,-110.115832705164,1499,Hill,Montana,30,041,30041,2916.06161,16673,101691.114,92.058,697.000,0.000,0.000,1906.127,0.000,27.570,0.000,104413.869
ReAtlas_biomass.1500,48.69567101319791,-104.55542042189515,1500,Sheridan,Montana,30,091,30091,1706.31653,4105,86185.836,26.325,0.000,0.000,0.000,515.380,0.000,6.788,0.000,86734.328
ReAtlas_biomass.1501,48.33305278795654,-106.62024455683655,1501,Valley,Montana,30,105,30105,5061.94006,7675,80593.107,48.065,0.000,0.000,0.000,1066.202,0.000,12.691,0.000,81720.065
ReAtlas_biomass.1504,48.65801097665792,-113.13270519105046,1504,Glacier,Montana,30,035,30035,3037.02559,13247,64855.136,218.272,867.000,0.000,0.000,1824.100,0.000,21.905,0.000,67786.413
ReAtlas_biomass.1505,48.60999537416967,-111.73541691078498,1505,Toole,Montana,30,101,30101,1945.86052,5267,80806.893,111.021,0.000,0.000,0.000,726.351,0.000,8.710,0.000,81652.975
ReAtlas_biomass.1507,48.283631426871366,-104.94913485724763,1507,Roosevelt,Montana,30,085,30085,2369.62551,10620,94867.564,23.232,0.000,0.000,0.000,1098.477,0.000,17.561,0.000,96006.834
ReAtlas_biomass.1508,48.23818019007413,-112.3839702676137,1508,Pondera,Montana,30,073,30073,1639.87011,6424,99064.929,153.950,0.000,0.000,4.082,846.025,0.000,10.623,0.000,100079.608
ReAtlas_biomass.1509,47.86484444509642,-110.47927414597294,1509,Chouteau,Montana,30,015,30015,3997.03517,5970,128374.679,42.114,1397.000,0.000,0.000,799.065,0.000,9.872,0.000,130622.730
ReAtlas_biomass.1512,47.81992215433279,-112.21746534106126,1512,Teton,Montana,30,099,30099,2292.43743,6445,76877.450,210.001,0.000,0.000,0.000,1120.537,0.000,10.657,0.000,78218.645
ReAtlas_biomass.2237,37.693920549176525,-97.48122876810572,2237,Sedgwick,Kansas,20,173,20173,1008.99447,452869,167529.432,316.463,90.000,0.000,3535.142,54663.455,22475.611,748.864,20597.976,269956.944
ReAtlas_biomass.2587,41.027517681248106,-94.2431665748287,2587,Union,Iowa,19,175,19175,425.95471,12309,98721.515,464.865,1844.000,0.000,0.000,1360.382,0.000,20.354,155964.010,258375.127
ReAtlas_biomass.1519,47.26058426894182,-111.35197112463817,1519,Cascade,Montana,30,013,30013,2711.78634,80357,50308.893,222.429,10100.000,0.000,518.177,8947.165,10399.000,132.878,0.000,80628.541
ReAtlas_biomass.1520,47.11846467059559,-114.05662976475591,1520,Missoula,Montana,30,063,30063,2618.35557,95802,757.000,7.883,109988.000,0.000,1559.513,10817.054,7301.000,158.418,0.000,130588.868
ReAtlas_biomass.2264,41.49879068721781,-86.7104682151249,2264,LaPorte,Indiana,18,091,18091,603.64423,110106,144324.140,1568.438,3740.000,0.000,530.424,13239.688,21490.720,182.071,21364.560,206440.041
ReAtlas_biomass.2175,39.35037350597892,-97.1655555705018,2175,Clay,Kansas,20,027,20027,655.6143,8822,89258.398,763.712,111.000,0.000,8.165,1328.356,0.000,14.588,95886.504,187370.723
ReAtlas_biomass.1542,45.33480923887479,-111.30230245175244,1542,Gallatin,Montana,30,031,30031,2632.15903,67831,48094.536,346.920,4204.000,0.000,1555.430,7651.541,1786.000,112.165,0.000,63750.592
ReAtlas_biomass.2181,39.30528836215833,-96.67636188398126,2181,Riley,Kansas,20,161,20161,622.11365,62843,33257.163,222.311,171.000,0.000,24.494,7613.245,0.000,103.917,18647.496,60039.625
ReAtlas_biomass.2182,39.3469787656685,-96.38255910826484,2182,Pottawatomie,Kansas,20,149,20149,862.07118,18209,32760.900,561.730,5531.000,386.000,16.330,2361.223,0.000,30.110,76444.301,118091.593
ReAtlas_biomass.2183,39.22639350879476,-95.38950434514868,2183,Jefferson,Kansas,20,087,20087,557.0074,18426,34662.174,188.332,6908.000,0.000,505.930,2296.418,6398.812,30.469,65661.322,116651.458
